[
  {
    "id": "ee711a41-1276-4789-8d04-348df027b101",
    "region": "Вінницька",
    "subregion": "Барський",
    "settlement_name": "Ходаки",
    "street": "вул. Дружби 1",
    "coordinates": [49.03192689971399, 27.45519840003199],
    "daily": true,
    "price": 2444,
    "type": "квартира"
  },
  {
    "id": "c7423743-5286-4073-b67f-5d25d7a90945",
    "region": "Вінницька",
    "subregion": "Гайсинський",
    "settlement_name": "Харпачка",
    "street": "вул. Центральна 9-а",
    "coordinates": [48.74274430031889, 29.21293950002697],
    "daily": false,
    "price": 3823,
    "type": "квартира"
  },
  {
    "id": "b560a6ca-d255-4c99-be59-f5607d367343",
    "region": "Вінницька",
    "subregion": "Калинівський",
    "settlement_name": "Хомутинці",
    "street": "вул.Першотравнева 2",
    "coordinates": [49.54434419993014, 28.43348399999744],
    "daily": true,
    "price": 5533,
    "type": "офіс"
  },
  {
    "id": "dec1d90c-5f76-4b49-ac8c-fb98c38f2b9f",
    "region": "Вінницька",
    "subregion": "Літинський",
    "settlement_name": "Журавне",
    "street": "вул. Центральна 59",
    "coordinates": [49.50671410030571, 28.18004029997377],
    "daily": false,
    "price": 9923,
    "type": "офіс"
  },
  {
    "id": "7683b9aa-e7c5-4f34-b032-ccb3a96c5f1c",
    "region": "Вінницька",
    "subregion": "Немирівський",
    "settlement_name": "Зяньківці",
    "street": "вул. Перемоги 55-а",
    "coordinates": [48.81471089994152, 29.09146900002556],
    "daily": true,
    "price": 4788,
    "type": "інше"
  },
  {
    "id": "ef4e6008-244d-4afb-ad73-63dc34465c41",
    "region": "Вінницька",
    "subregion": "Погребищенський",
    "settlement_name": "Спичинці",
    "street": "вул. Поштова null",
    "coordinates": [49.40876280020248, 29.15737459998495],
    "daily": false,
    "price": 895,
    "type": "офіс"
  },
  {
    "id": "8e719aad-033f-4e21-b0bf-70bb150a25ea",
    "region": "Вінницька",
    "subregion": "Тростянецький",
    "settlement_name": "Бережанка",
    "street": "вул. Шкільна 5",
    "coordinates": [48.39469500014711, 29.18734060000912],
    "daily": true,
    "price": 4314,
    "type": "офіс"
  },
  {
    "id": "a6ed3a95-b7f5-4090-a437-724ee2e09780",
    "region": "Вінницька",
    "subregion": "Чернівецький",
    "settlement_name": "Саїнка",
    "street": "вул. Церковна 2",
    "coordinates": [48.55096200041449, 28.19169659991813],
    "daily": false,
    "price": 3725,
    "type": "офіс"
  },
  {
    "id": "9b67e18f-a454-4c6b-b955-184901657047",
    "region": "Вінницька",
    "subregion": "Немирівський",
    "settlement_name": "Брацлав",
    "street": "вул. Шкільна 4",
    "coordinates": [48.81627060034265, 28.94619889996774],
    "daily": true,
    "price": 9060,
    "type": "інше"
  },
  {
    "id": "cb1fd1d2-5615-424c-b1b8-484cd166d40f",
    "region": "Волинська",
    "subregion": "Горохівський",
    "settlement_name": "Журавники",
    "street": "вул. Львівська 17",
    "coordinates": [50.42403965043091, 24.68063706265046],
    "daily": false,
    "price": 6305,
    "type": "квартира"
  },
  {
    "id": "b133402e-ab77-49c9-a8fe-ea29783c1123",
    "region": "Волинська",
    "subregion": "Ківерцівський",
    "settlement_name": "Башлики",
    "street": "вул. Шкільна 38",
    "coordinates": [50.82359685437456, 25.84350707125924],
    "daily": true,
    "price": 1535,
    "type": "склад"
  },
  {
    "id": "2d9d647c-2232-4828-b4d5-ac6e504ba4cf",
    "region": "Волинська",
    "subregion": "Луцький",
    "settlement_name": "Баківці",
    "street": "вул. Перемоги 9-а",
    "coordinates": [50.59122446662625, 25.26746435889036],
    "daily": true,
    "price": 1068,
    "type": "офіс"
  },
  {
    "id": "c1c57a73-fbce-4169-a891-19c71b7e302d",
    "region": "Волинська",
    "subregion": "Маневицький",
    "settlement_name": "Годомичі",
    "street": "вул. Шкільна 8",
    "coordinates": [51.06201399080258, 25.50996171894893],
    "daily": false,
    "price": 7878,
    "type": "інше"
  },
  {
    "id": "ee30c45b-47ec-490c-85bc-cdd8fb968d8f",
    "region": "Волинська",
    "subregion": "Старовижівський",
    "settlement_name": "Сереховичі",
    "street": "вул. Радянська 24",
    "coordinates": [51.40811373257078, 24.67187586881036],
    "daily": false,
    "price": 7072,
    "type": "офіс"
  },
  {
    "id": "fc3dc228-5e03-495f-9223-a85d31752c71",
    "region": "Дніпропетровська",
    "subregion": "Дніпро Соборний",
    "settlement_name": "Дніпро",
    "street": "вул.Абхазька 4",
    "coordinates": [48.42442436048785, 35.03358695331368],
    "daily": false,
    "price": 4687,
    "type": "офіс"
  },
  {
    "id": "9128f9f0-bd6c-440b-b449-1aa387c210d9",
    "region": "Дніпропетровська",
    "subregion": "Кривий Ріг Тернівський",
    "settlement_name": "Кривий Ріг",
    "street": "вул. Чарівна 20",
    "coordinates": [48.07643738497304, 33.51827577707503],
    "daily": false,
    "price": 2954,
    "type": "склад"
  },
  {
    "id": "26e9c3d2-765f-4653-a245-9468ee217659",
    "region": "Дніпропетровська",
    "subregion": "Верхньодніпровський",
    "settlement_name": "Підлужжя",
    "street": "вул. Громова 121-а",
    "coordinates": [48.63530940102333, 34.3057995222273],
    "daily": false,
    "price": 3591,
    "type": "офіс"
  },
  {
    "id": "f3464225-abf0-42bb-aa3d-e7aaa8c1b5c9",
    "region": "Дніпропетровська",
    "subregion": "Межівський",
    "settlement_name": "Новогригорівка",
    "street": "вул. Центральна 75-а",
    "coordinates": [48.43318032213314, 36.63961942360087],
    "daily": false,
    "price": 5238,
    "type": "квартира"
  },
  {
    "id": "ed472ab4-326d-454e-9d73-5557f7380653",
    "region": "Дніпропетровська",
    "subregion": "Петриківський",
    "settlement_name": "Мала Петрівка",
    "street": "вул. Шкільна 3",
    "coordinates": [48.68755018257715, 34.67398017713709],
    "daily": true,
    "price": 2775,
    "type": "інше"
  },
  {
    "id": "93065d31-c1dd-4ce9-ba87-6850fe571b45",
    "region": "Дніпропетровська",
    "subregion": "Софіївський",
    "settlement_name": "Авдотівка",
    "street": "вул. Центральна 23",
    "coordinates": [47.97323659457701, 33.68714896652045],
    "daily": false,
    "price": 9854,
    "type": "інше"
  },
  {
    "id": "30915c48-7a4e-4723-b7b5-8ac2c28f3a82",
    "region": "Дніпропетровська",
    "subregion": "Магдалинівський",
    "settlement_name": "Магдалинівка",
    "street": "вул. Центральна 38",
    "coordinates": [48.92155093881983, 34.91252108064063],
    "daily": false,
    "price": 7040,
    "type": "інше"
  },
  {
    "id": "79230800-b822-44f4-93b7-c3e6b1822534",
    "region": "Донецька",
    "subregion": "Покровськ",
    "settlement_name": "Покровськ",
    "street": "вул. Заводська 4",
    "coordinates": [48.29482877588117, 37.19257733698894],
    "daily": true,
    "price": 561,
    "type": "інше"
  },
  {
    "id": "dd3619e9-b090-46ed-8028-de24e86840ed",
    "region": "Донецька",
    "subregion": "Бахмутський",
    "settlement_name": "Никифорівка",
    "street": "вул. Тімірязева 45-а",
    "coordinates": [48.76807380237185, 37.90149248381124],
    "daily": true,
    "price": 4574,
    "type": "офіс"
  },
  {
    "id": "9426feb0-a870-4747-bd17-9cc501574326",
    "region": "Донецька",
    "subregion": "Костянтинівський",
    "settlement_name": "Нова Полтавка",
    "street": "вул. Молодіжна 11",
    "coordinates": [48.36510517462352, 37.48840500388911],
    "daily": true,
    "price": 5000,
    "type": "склад"
  },
  {
    "id": "c7c9bccf-d3e8-417e-bd23-ae7ccf4aa0e8",
    "region": "Донецька",
    "subregion": "Ясинуватський",
    "settlement_name": "Орлівка",
    "street": "вул. Центральна 42",
    "coordinates": [48.16226880017226, 37.64465820004914],
    "daily": true,
    "price": 6732,
    "type": "склад"
  },
  {
    "id": "47a372af-241a-456b-8c0f-5255e516b221",
    "region": "Житомирська",
    "subregion": "Житомир",
    "settlement_name": "Житомир",
    "street": "вул. Клосовського 10",
    "coordinates": [50.27603689983546, 28.63350289999688],
    "daily": false,
    "price": 7260,
    "type": "квартира"
  },
  {
    "id": "18d1ec2e-fdb0-4e08-8fbd-fe5d18117ac8",
    "region": "Житомирська",
    "subregion": "Брусилівський",
    "settlement_name": "Вільшка",
    "street": "вул. Центральна 22",
    "coordinates": [50.23201326612912, 29.65057521351632],
    "daily": false,
    "price": 7858,
    "type": "квартира"
  },
  {
    "id": "b910866e-e4b1-457c-9774-cb12f5b82c30",
    "region": "Житомирська",
    "subregion": "Житомирський",
    "settlement_name": "Пряжів",
    "street": "вул. Партизанська null",
    "coordinates": [50.19021275348447, 28.68409037345929],
    "daily": true,
    "price": 8424,
    "type": "офіс"
  },
  {
    "id": "6229829b-e5d5-43ea-94e7-62a0305f602e",
    "region": "Житомирська",
    "subregion": "Любарський",
    "settlement_name": "Березівка",
    "street": "0 null",
    "coordinates": [49.77600912512993, 27.85256160627428],
    "daily": false,
    "price": 7432,
    "type": "інше"
  },
  {
    "id": "01d26f4c-03fe-4473-990e-d0b46bc6b9be",
    "region": "Житомирська",
    "subregion": "Новоград-Волинський",
    "settlement_name": "Кропивня",
    "street": "вул. Дружби 2",
    "coordinates": [50.57111244056387, 27.82329607189017],
    "daily": false,
    "price": 8480,
    "type": "офіс"
  },
  {
    "id": "3b9ad860-99f2-454b-9f08-67c2b05e1260",
    "region": "Житомирська",
    "subregion": "Олевський",
    "settlement_name": "Копище",
    "street": "вул. Партизанська 50-б",
    "coordinates": [51.58868651567003, 27.85424123487793],
    "daily": false,
    "price": 2419,
    "type": "інше"
  },
  {
    "id": "73875ff5-7082-4905-a9b7-d144e085c7c9",
    "region": "Житомирська",
    "subregion": "Ружинський",
    "settlement_name": "Вчорайше",
    "street": "вул. Шкільна 55",
    "coordinates": [49.86450071096793, 29.13945623142684],
    "daily": false,
    "price": 6604,
    "type": "склад"
  },
  {
    "id": "7f8a7a0e-36ad-4902-ac9a-cd8f00f76707",
    "region": "Житомирська",
    "subregion": "Баранівський",
    "settlement_name": "Кам'яний Брід",
    "street": "вул. Лесі Українки 22",
    "coordinates": [50.41589772464989, 27.83810163579441],
    "daily": false,
    "price": 3349,
    "type": "інше"
  },
  {
    "id": "e6b748e7-cadc-4b92-8721-0c953be3f7ec",
    "region": "Закарпатська",
    "subregion": "Берегівський",
    "settlement_name": "Чома",
    "street": "вул. Ш. Петефі 49",
    "coordinates": [48.13504657373559, 22.63449551353863],
    "daily": true,
    "price": 1535,
    "type": "квартира"
  },
  {
    "id": "0bcdabe3-d563-4f56-b8c9-a87c6a6bf679",
    "region": "Закарпатська",
    "subregion": "Іршавський",
    "settlement_name": "Брід",
    "street": "вул. Центральна 75",
    "coordinates": [48.34953420363062, 23.00425084170098],
    "daily": false,
    "price": 5398,
    "type": "квартира"
  },
  {
    "id": "14a41474-1c96-44a4-a38a-dddab6903d47",
    "region": "Закарпатська",
    "subregion": "Мукачівський",
    "settlement_name": "Нижній Коропець",
    "street": "вул. Миру 49",
    "coordinates": [48.36082937790369, 22.66318723708464],
    "daily": false,
    "price": 1007,
    "type": "склад"
  },
  {
    "id": "1efb64ed-0c61-4bc0-8a35-26cbee316836",
    "region": "Закарпатська",
    "subregion": "Тячівський",
    "settlement_name": "Красна",
    "street": "вул. Миру 203",
    "coordinates": [48.22146867143149, 23.92797698651297],
    "daily": false,
    "price": 2131,
    "type": "квартира"
  },
  {
    "id": "436b7deb-dee7-474d-8e77-1685d29ec984",
    "region": "Закарпатська",
    "subregion": "Великоберезнянський",
    "settlement_name": "Великий Березний",
    "street": "вул. Шевченка 2",
    "coordinates": [48.9008763957331, 22.45842166680132],
    "daily": false,
    "price": 4835,
    "type": "офіс"
  },
  {
    "id": "138bfafd-939e-4ebd-8d37-3e2ffbf868da",
    "region": "Запорізька",
    "subregion": "Гуляйпільський",
    "settlement_name": "Гуляйполе",
    "street": "вул. Велика 337",
    "coordinates": [47.65228784562355, 36.30177770935829],
    "daily": false,
    "price": 928,
    "type": "квартира"
  },
  {
    "id": "c6f2cd40-9bb6-4061-a0e2-23015e12f1d6",
    "region": "Запорізька",
    "subregion": "Гуляйпільський",
    "settlement_name": "Темирівка",
    "street": "вул. Миру 48-в",
    "coordinates": [47.82218579916521, 36.57257541518249],
    "daily": false,
    "price": 9708,
    "type": "інше"
  },
  {
    "id": "24d6d78c-c1b0-416f-9827-1da8b3746063",
    "region": "Запорізька",
    "subregion": "Новомиколаївський",
    "settlement_name": "Листівка",
    "street": "буд. 52 null",
    "coordinates": [47.84998426996563, 35.7623576912077],
    "daily": false,
    "price": 5955,
    "type": "склад"
  },
  {
    "id": "3edeb36f-8fe7-4c0b-9d65-b4abd8c46dbf",
    "region": "Запорізька",
    "subregion": "Розівський",
    "settlement_name": "Зоря",
    "street": "вул. Миру 41",
    "coordinates": [47.52572804971444, 36.94310378437835],
    "daily": true,
    "price": 4146,
    "type": "інше"
  },
  {
    "id": "96ea67b1-791c-48ef-bd99-4d68c44be9ad",
    "region": "Запорізька",
    "subregion": "Чернігівський",
    "settlement_name": "Чернігівка",
    "street": "вул. Соборна 180",
    "coordinates": [47.20308161131291, 36.16755863832639],
    "daily": false,
    "price": 5627,
    "type": "інше"
  },
  {
    "id": "5af5a439-bf13-4ff3-a7d4-c723842d73aa",
    "region": "Івано-Франківська",
    "subregion": "Богородчанський",
    "settlement_name": "Раковець",
    "street": "вул. Шевченка 68",
    "coordinates": [48.71039022377149, 24.37791407324333],
    "daily": false,
    "price": 6274,
    "type": "склад"
  },
  {
    "id": "942d7b4e-e712-477a-a3a0-056fa7535f8f",
    "region": "Івано-Франківська",
    "subregion": "Городенківський",
    "settlement_name": "Колінки",
    "street": "вул. Стефаника 7",
    "coordinates": [48.79064345330944, 25.49716934031977],
    "daily": false,
    "price": 8135,
    "type": "офіс"
  },
  {
    "id": "788c7dca-c297-4fdc-8ad8-fa1b50383e5b",
    "region": "Івано-Франківська",
    "subregion": "Калуський",
    "settlement_name": "Пійло",
    "street": "вул. Грушевського 106",
    "coordinates": [49.00551846579697, 24.30840237874312],
    "daily": false,
    "price": 5048,
    "type": "склад"
  },
  {
    "id": "c8c3eb98-63c2-4764-bd23-41e450841c9e",
    "region": "Івано-Франківська",
    "subregion": "Косівський",
    "settlement_name": "Малий Рожин",
    "street": "вул. Головна 1",
    "coordinates": [48.24904827674727, 25.10550786323387],
    "daily": true,
    "price": 8278,
    "type": "офіс"
  },
  {
    "id": "06d5683b-cb1f-49d0-8d85-47046f9309dd",
    "region": "Івано-Франківська",
    "subregion": "Рогатинський",
    "settlement_name": "Фрага",
    "street": "вул. Миру 4-а",
    "coordinates": [49.47136888012449, 24.44058047956243],
    "daily": false,
    "price": 4415,
    "type": "інше"
  },
  {
    "id": "cc141443-fa73-4253-993b-c083921cfae8",
    "region": "Івано-Франківська",
    "subregion": "Тисменицький",
    "settlement_name": "Загвіздя",
    "street": "вул. Липова 22",
    "coordinates": [48.92471297143781, 24.65648752030529],
    "daily": true,
    "price": 2339,
    "type": "квартира"
  },
  {
    "id": "e7cb4287-5664-49d7-8a1e-e34bd34d62ed",
    "region": "Івано-Франківська",
    "subregion": "Калуський",
    "settlement_name": "Войнилів",
    "street": "вул.Шевченка 127",
    "coordinates": [49.12591255147029, 24.49048463234487],
    "daily": false,
    "price": 2645,
    "type": "склад"
  },
  {
    "id": "e61221f6-bfa1-440b-a50d-0f7bc269edbe",
    "region": "Київська",
    "subregion": "Васильків",
    "settlement_name": "Васильків",
    "street": "в/м Будинок офіцерів 11",
    "coordinates": [50.17702421529867, 30.31865637455391],
    "daily": true,
    "price": 721,
    "type": "інше"
  },
  {
    "id": "afe81e67-d015-4c6b-9bdb-a771afa6a770",
    "region": "Київська",
    "subregion": "Богуславський",
    "settlement_name": "Іванівка",
    "street": "вул. Центральна 11",
    "coordinates": [49.55504460044177, 31.10358290004316],
    "daily": false,
    "price": 9060,
    "type": "інше"
  },
  {
    "id": "0c6d18bf-956d-4804-a67f-b6c198aeae2c",
    "region": "Київська",
    "subregion": "Броварський",
    "settlement_name": "Рожни",
    "street": "вул. Свободи 41",
    "coordinates": [50.66273099965797, 30.72973990000591],
    "daily": false,
    "price": 7897,
    "type": "квартира"
  },
  {
    "id": "c6c54315-d410-4c05-8395-31a89f7cc10d",
    "region": "Київська",
    "subregion": "Володарський",
    "settlement_name": "Рачки",
    "street": "вул. Квітнева 50",
    "coordinates": [49.49823591683332, 29.90792293172404],
    "daily": true,
    "price": 617,
    "type": "офіс"
  },
  {
    "id": "b500ff12-faf5-4f5e-9026-8d6aa2f6faf7",
    "region": "Київська",
    "subregion": "Києво-Святошинський",
    "settlement_name": "Бобриця",
    "street": "вул. Шкільна 6",
    "coordinates": [50.34543951141578, 30.18734214479439],
    "daily": false,
    "price": 3973,
    "type": "квартира"
  },
  {
    "id": "8b834d4e-3aea-4f4f-a576-de29c3850baa",
    "region": "Київська",
    "subregion": "Обухівський",
    "settlement_name": "Витачів",
    "street": "вул. Павла Осоченка 3",
    "coordinates": [50.11374817827912, 30.86003837471311],
    "daily": false,
    "price": 7532,
    "type": "офіс"
  },
  {
    "id": "3728198f-ba61-4cfd-868b-291618ac3bfc",
    "region": "Київська",
    "subregion": "Сквирський",
    "settlement_name": "Красноліси",
    "street": "вул. Шевченка 4",
    "coordinates": [49.86888349978582, 29.78840789994947],
    "daily": false,
    "price": 7079,
    "type": "офіс"
  },
  {
    "id": "62711c86-cbe3-4feb-8ddb-40692b0ca9c7",
    "region": "Київська",
    "subregion": "Тетіївський",
    "settlement_name": "Тайниця",
    "street": "вул.Центральна 46-а",
    "coordinates": [49.27441169965551, 29.93422960002884],
    "daily": false,
    "price": 7964,
    "type": "офіс"
  },
  {
    "id": "59a3dc07-72cc-4648-b4b2-d7de7acd62cc",
    "region": "Кіровоградська",
    "subregion": "Бобринецький",
    "settlement_name": "Бобринець",
    "street": "вул. Миколаївська 78",
    "coordinates": [48.05686641746154, 32.1652634612202],
    "daily": false,
    "price": 1407,
    "type": "квартира"
  },
  {
    "id": "0e6af909-0181-401d-b45a-0aa869b04dcc",
    "region": "Кіровоградська",
    "subregion": "Вільшанський",
    "settlement_name": "Бузникувате",
    "street": "вул. Садова 16",
    "coordinates": [48.35281399250628, 30.75606314118198],
    "daily": false,
    "price": 2521,
    "type": "квартира"
  },
  {
    "id": "b7235f06-b836-4528-a6a4-365b72de9b1a",
    "region": "Кіровоградська",
    "subregion": "Долинський",
    "settlement_name": "Василівка",
    "street": "вул. Українська 32",
    "coordinates": [48.25745685968052, 32.80238076650903],
    "daily": true,
    "price": 3655,
    "type": "склад"
  },
  {
    "id": "f2c68fd3-c288-4562-84cf-475517d2ccdb",
    "region": "Кіровоградська",
    "subregion": "Новоукраїнський",
    "settlement_name": "Ганнівка",
    "street": "вул. Центральна 6",
    "coordinates": [48.19620335351673, 31.89693589147666],
    "daily": false,
    "price": 9373,
    "type": "офіс"
  },
  {
    "id": "542a62f1-524b-4ac3-9bfe-8fe3590a041e",
    "region": "Кіровоградська",
    "subregion": "Олександрійський",
    "settlement_name": "Новоселівка",
    "street": "вул. Шкільна 1",
    "coordinates": [48.68711106996302, 32.95648581317818],
    "daily": false,
    "price": 822,
    "type": "офіс"
  },
  {
    "id": "c410619f-2791-4a41-9019-021abbef86a1",
    "region": "Кіровоградська",
    "subregion": "Знам'янський",
    "settlement_name": "Саблине",
    "street": "вул. Мирна 1",
    "coordinates": [48.64062335533967, 32.63098375002014],
    "daily": false,
    "price": 8138,
    "type": "інше"
  },
  {
    "id": "a75e9bee-21ee-468d-94d3-59165ebff27c",
    "region": "Луганська",
    "subregion": "Старобільський",
    "settlement_name": "Старобільськ",
    "street": "кв. Дружби 1",
    "coordinates": [49.27693809594112, 38.92470398000063],
    "daily": true,
    "price": 2831,
    "type": "офіс"
  },
  {
    "id": "4d47a470-a658-4b9e-b29b-191affaca87b",
    "region": "Луганська",
    "subregion": "Новоайдарський",
    "settlement_name": "Олексіївка",
    "street": "вул. Центральна 1",
    "coordinates": [49.01338604576432, 39.17832242660617],
    "daily": false,
    "price": 7969,
    "type": "квартира"
  },
  {
    "id": "a68c1e53-3207-4fda-a2f8-c437be51093d",
    "region": "Луганська",
    "subregion": "Старобільський",
    "settlement_name": "Хворостянівка",
    "street": "вул. Миру 13",
    "coordinates": [49.14872238686722, 38.88929363644023],
    "daily": false,
    "price": 2285,
    "type": "офіс"
  },
  {
    "id": "da8e453e-0640-46fa-a088-460a79f7d040",
    "region": "Львівська",
    "subregion": "Львів",
    "settlement_name": "Львів",
    "street": "вул. Миколайчука 1",
    "coordinates": [49.86841039963931, 24.04279070009949],
    "daily": false,
    "price": 9476,
    "type": "інше"
  },
  {
    "id": "c9cf22f8-5a2d-4c6f-a293-3e5857b815ad",
    "region": "Львівська",
    "subregion": "Турківський",
    "settlement_name": "Турка",
    "street": "пл. Ринок 1",
    "coordinates": [49.15245715787734, 23.03482363720838],
    "daily": true,
    "price": 5880,
    "type": "офіс"
  },
  {
    "id": "a7a6cdfd-0809-4dbc-ac8b-cc26485e05d7",
    "region": "Львівська",
    "subregion": "Буський",
    "settlement_name": "Соколівка",
    "street": "вул. Бродівська 5",
    "coordinates": [50.03375029828995, 24.84551161012271],
    "daily": false,
    "price": 6414,
    "type": "офіс"
  },
  {
    "id": "044946ca-cb95-497e-a2f3-5f8ffad7459f",
    "region": "Львівська",
    "subregion": "Дрогобицький",
    "settlement_name": "Ролів",
    "street": "вул. Шевченка 71",
    "coordinates": [49.44610337350001, 23.62697088351557],
    "daily": false,
    "price": 2742,
    "type": "квартира"
  },
  {
    "id": "9089c89d-7acb-4a30-8320-e92d1db3d1cb",
    "region": "Львівська",
    "subregion": "Жовківський",
    "settlement_name": "Кам’яна Гора",
    "street": "вул. Хмельницького 58-а",
    "coordinates": [50.13443729495047, 23.65321255529174],
    "daily": false,
    "price": 5044,
    "type": "офіс"
  },
  {
    "id": "b6089232-377f-4745-b21c-ad6048e98203",
    "region": "Львівська",
    "subregion": "Золочівський",
    "settlement_name": "Ясенівці",
    "street": "вул. Львівська 33",
    "coordinates": [49.80512545894523, 24.84491902697978],
    "daily": true,
    "price": 6902,
    "type": "квартира"
  },
  {
    "id": "27a026ee-69a3-4fa6-ae31-7e7ff474ba83",
    "region": "Львівська",
    "subregion": "Мостиський",
    "settlement_name": "Заверхи",
    "street": "вул. В.Івасюка 17",
    "coordinates": [49.85515175067822, 23.04357390891527],
    "daily": false,
    "price": 6566,
    "type": "склад"
  },
  {
    "id": "adfa35fb-6e19-4ce1-8152-165f33e58ccf",
    "region": "Львівська",
    "subregion": "Пустомитівський",
    "settlement_name": "Малечковичі",
    "street": "вул. Нова 10",
    "coordinates": [49.75141251089666, 23.95433093754806],
    "daily": true,
    "price": 7468,
    "type": "склад"
  },
  {
    "id": "f3f4e9bf-a130-4c37-9ac4-dd36ee57e405",
    "region": "Львівська",
    "subregion": "Самбірський",
    "settlement_name": "Залужани",
    "street": "вул. Січових Стрільців 4",
    "coordinates": [49.50890172765251, 23.45157708437931],
    "daily": false,
    "price": 4059,
    "type": "інше"
  },
  {
    "id": "f12ffc09-79b7-48df-877a-2d577edb3f71",
    "region": "Львівська",
    "subregion": "Сокальський",
    "settlement_name": "Бутини",
    "street": "вул. Травнева 48",
    "coordinates": [50.23081520362758, 23.99307355683751],
    "daily": true,
    "price": 9901,
    "type": "квартира"
  },
  {
    "id": "96177326-ca8d-4f26-835f-6dab6ba95fad",
    "region": "Львівська",
    "subregion": "Старосамбірський",
    "settlement_name": "Муроване",
    "street": "вул. Шкільна 1",
    "coordinates": [49.52406675129913, 22.93799320814563],
    "daily": false,
    "price": 1484,
    "type": "склад"
  },
  {
    "id": "c4714586-6c0c-44fd-bcfe-a629dee20055",
    "region": "Львівська",
    "subregion": "Турківський",
    "settlement_name": "Бітля",
    "street": "вул. Центральна null",
    "coordinates": [48.97873164874171, 22.99274742396225],
    "daily": false,
    "price": 9975,
    "type": "склад"
  },
  {
    "id": "cdef12d1-42a9-4035-bf4b-d5b5bbb76cdc",
    "region": "Львівська",
    "subregion": "Яворівський",
    "settlement_name": "Середкевичі",
    "street": "вул. Центральна 4",
    "coordinates": [50.15592680835913, 23.55261548782931],
    "daily": false,
    "price": 4999,
    "type": "склад"
  },
  {
    "id": "cfdeb4ca-d7b8-4931-84ea-6e9e89b28773",
    "region": "Миколаївська",
    "subregion": "Баштанський",
    "settlement_name": "Баштанка",
    "street": "вул. Сизоненка 1-б",
    "coordinates": [47.40684061099998, 32.45624639924405],
    "daily": false,
    "price": 7669,
    "type": "склад"
  },
  {
    "id": "4920c28a-42d2-4bde-9752-29164aa75f9a",
    "region": "Миколаївська",
    "subregion": "Березнегуватський",
    "settlement_name": "Новоукраїнка",
    "street": "вул. Миру 9",
    "coordinates": [47.45116482634099, 32.85139459084698],
    "daily": true,
    "price": 5188,
    "type": "склад"
  },
  {
    "id": "2f352515-ef1e-44a7-a127-22ac78192701",
    "region": "Миколаївська",
    "subregion": "Доманівський",
    "settlement_name": "Петропавлівка",
    "street": "вул. Торгова 15",
    "coordinates": [47.68177691798695, 30.90461797445722],
    "daily": true,
    "price": 3332,
    "type": "інше"
  },
  {
    "id": "1a4d2a9c-abd9-4049-9c6c-5d0f0566b969",
    "region": "Миколаївська",
    "subregion": "Новобузький",
    "settlement_name": "Новополтавка",
    "street": "вул. Мельнична 105-а",
    "coordinates": [47.54668918805707, 32.50187067416763],
    "daily": true,
    "price": 6662,
    "type": "офіс"
  },
  {
    "id": "f97a8b26-fd36-4573-a376-f7519344fc22",
    "region": "Миколаївська",
    "subregion": "Снігурівський",
    "settlement_name": "Промінь",
    "street": "вул. Центральна 26-в",
    "coordinates": [46.89545401041762, 32.73857301923179],
    "daily": false,
    "price": 8861,
    "type": "квартира"
  },
  {
    "id": "95cccdd7-413a-4d8b-83e6-689b091769cb",
    "region": "Одеська",
    "subregion": "Арцизький",
    "settlement_name": "Арциз",
    "street": "вул. 28 Червня 118-а",
    "coordinates": [45.98718472411041, 29.42751205391186],
    "daily": false,
    "price": 8314,
    "type": "склад"
  },
  {
    "id": "04ea1d59-4c26-4f9c-8b22-9d68a4d19fd1",
    "region": "Одеська",
    "subregion": "Балтський",
    "settlement_name": "Євтодія",
    "street": "вул. Шевченка 15",
    "coordinates": [47.96222547846114, 29.43129626492251],
    "daily": true,
    "price": 4355,
    "type": "інше"
  },
  {
    "id": "70e20b81-7642-4db6-990c-6c29c13ef566",
    "region": "Одеська",
    "subregion": "Біляївський",
    "settlement_name": "Великий Дальник",
    "street": "вул. Шкільна null",
    "coordinates": [46.46699401487517, 30.56187875904336],
    "daily": true,
    "price": 8925,
    "type": "офіс"
  },
  {
    "id": "a45cbd91-e228-4bfc-9c55-59e75a123941",
    "region": "Одеська",
    "subregion": "Кілійський",
    "settlement_name": "Десантне",
    "street": "вул. Шкільна 45",
    "coordinates": [45.57451638413194, 29.53791545824564],
    "daily": false,
    "price": 9726,
    "type": "склад"
  },
  {
    "id": "34fdec96-3d28-43dc-bcdd-c9e9613616ae",
    "region": "Одеська",
    "subregion": "Окнянський",
    "settlement_name": "Артирівка",
    "street": "вул. Шкільна null",
    "coordinates": [47.4747909415749, 29.36429207280132],
    "daily": false,
    "price": 3639,
    "type": "інше"
  },
  {
    "id": "31cb6d19-d747-4fa6-9d9d-9a016631792c",
    "region": "Одеська",
    "subregion": "Ренійський",
    "settlement_name": "Плавні",
    "street": "вул. Миру 97-б",
    "coordinates": [45.39717203909743, 28.58066853216458],
    "daily": false,
    "price": 5499,
    "type": "інше"
  },
  {
    "id": "b0b7a735-1411-42d6-95ca-bcfd53c85a8d",
    "region": "Одеська",
    "subregion": "Татарбунарський",
    "settlement_name": "Дмитрівка",
    "street": "вул. Гагаріна 11",
    "coordinates": [45.8388280670322, 29.48676308479008],
    "daily": false,
    "price": 6270,
    "type": "інше"
  },
  {
    "id": "4cded12e-dca9-499a-a76d-04f534fc405a",
    "region": "Одеська",
    "subregion": "Ширяївський",
    "settlement_name": "Ширяєве",
    "street": "вул. Коробченка 12",
    "coordinates": [47.38152127244178, 30.19125249339158],
    "daily": false,
    "price": 6888,
    "type": "інше"
  },
  {
    "id": "06fdcfc2-569e-41d8-aab6-479985589ebb",
    "region": "Полтавська",
    "subregion": "Великобагачанський",
    "settlement_name": "Попове",
    "street": "вул. Шкільна 4-а",
    "coordinates": [49.62296916296869, 33.62978292632869],
    "daily": false,
    "price": 3870,
    "type": "інше"
  },
  {
    "id": "e6c377d3-9eb6-4f5f-90d9-2235a9b640ab",
    "region": "Полтавська",
    "subregion": "Диканський",
    "settlement_name": "Байрак",
    "street": "вул. Полтавська 10-а",
    "coordinates": [49.72088216791348, 34.36797383627768],
    "daily": true,
    "price": 2108,
    "type": "інше"
  },
  {
    "id": "b54ce9e7-fb1e-43e1-b241-7893823a92b3",
    "region": "Полтавська",
    "subregion": "Кобеляцький",
    "settlement_name": "Чорбівка",
    "street": "0.0 null",
    "coordinates": [49.20668564459309, 34.32836863048602],
    "daily": true,
    "price": 9593,
    "type": "інше"
  },
  {
    "id": "8979b638-1763-4a08-8c60-248d11ce0587",
    "region": "Полтавська",
    "subregion": "Лубенський",
    "settlement_name": "Біївці",
    "street": "вул. Шевченка 99",
    "coordinates": [50.14222037419931, 32.90243280754483],
    "daily": true,
    "price": 2165,
    "type": "квартира"
  },
  {
    "id": "d38a3f93-4922-492e-b3dc-444a1a140759",
    "region": "Полтавська",
    "subregion": "Новосанжарський",
    "settlement_name": "Полузір'я",
    "street": "пл.Соборності 19",
    "coordinates": [49.44828098520198, 34.30733725364527],
    "daily": false,
    "price": 3996,
    "type": "склад"
  },
  {
    "id": "96669910-305e-4b54-9f9a-1774b95d34df",
    "region": "Полтавська",
    "subregion": "Полтавський",
    "settlement_name": "Судіївка",
    "street": "вул. Соборності 5",
    "coordinates": [49.50542608446072, 34.41909608731883],
    "daily": false,
    "price": 9315,
    "type": "склад"
  },
  {
    "id": "8aac5ea3-7852-4363-9ea0-663aebb5ac7f",
    "region": "Полтавська",
    "subregion": "Хорольський",
    "settlement_name": "Штомпелівка",
    "street": "0.0 null",
    "coordinates": [49.79783468516452, 33.19154105274409],
    "daily": false,
    "price": 714,
    "type": "склад"
  },
  {
    "id": "f69a74d7-8f7c-4be6-ac92-cec9f7a5bcaa",
    "region": "Рівненська",
    "subregion": "Рівне",
    "settlement_name": "Рівне",
    "street": "вул. С.Бандери 9-а",
    "coordinates": [50.61295446606143, 26.25195654282703],
    "daily": true,
    "price": 3255,
    "type": "інше"
  },
  {
    "id": "2ce62ee1-4119-4689-9b18-e46bae7ddb6b",
    "region": "Рівненська",
    "subregion": "Володимирецький",
    "settlement_name": "Малий Жолудськ",
    "street": "вул. Богдана Хмельницького 44",
    "coordinates": [51.30326460324606, 26.10937870112207],
    "daily": false,
    "price": 6429,
    "type": "офіс"
  },
  {
    "id": "14a871f2-b7c2-4a97-b93e-9906ff516222",
    "region": "Рівненська",
    "subregion": "Дубровицький",
    "settlement_name": "Висоцьк",
    "street": "вул. Малька 1",
    "coordinates": [51.72128579571412, 26.65700099390778],
    "daily": false,
    "price": 5784,
    "type": "склад"
  },
  {
    "id": "04524666-a69c-477e-a481-7e3301cd97e6",
    "region": "Рівненська",
    "subregion": "Корецький",
    "settlement_name": "Новий Корець",
    "street": "вул. Незалежності 32-а",
    "coordinates": [50.61490338892543, 27.13782226720207],
    "daily": false,
    "price": 2824,
    "type": "офіс"
  },
  {
    "id": "746b3076-9446-4cec-b3f8-6fcf7220ef9f",
    "region": "Рівненська",
    "subregion": "Радивилівський",
    "settlement_name": "Гранівка",
    "street": "вул. Шевченка 18",
    "coordinates": [50.24889015957666, 25.51216397607858],
    "daily": false,
    "price": 1161,
    "type": "офіс"
  },
  {
    "id": "858a9ba8-2bc3-4f71-86df-2e944846f508",
    "region": "Рівненська",
    "subregion": "Сарненський",
    "settlement_name": "Калинівка",
    "street": "вул. Шкільна 4",
    "coordinates": [51.12322326490801, 26.32162083469262],
    "daily": true,
    "price": 3209,
    "type": "офіс"
  },
  {
    "id": "a054c520-21f6-42ee-907d-4254f9b3682b",
    "region": "Сумська",
    "subregion": "Суми",
    "settlement_name": "Суми",
    "street": "вул.Чехова 77",
    "coordinates": [50.93401089972428, 34.82899969999337],
    "daily": false,
    "price": 2915,
    "type": "офіс"
  },
  {
    "id": "c29c124c-dfbe-4f77-80ee-750c63dad028",
    "region": "Сумська",
    "subregion": "Глухівський",
    "settlement_name": "Первомайськ",
    "street": "вул. Слави 4",
    "coordinates": [51.81670141570305, 34.03268833937854],
    "daily": false,
    "price": 1279,
    "type": "офіс"
  },
  {
    "id": "69617ed8-d4dc-4b2a-a19c-5c1d8f363772",
    "region": "Сумська",
    "subregion": "Лебединський",
    "settlement_name": "Великий Вистороп",
    "street": "вул. Середня 1-а",
    "coordinates": [50.69736362529994, 34.7876856316928],
    "daily": false,
    "price": 6507,
    "type": "офіс"
  },
  {
    "id": "01a56c68-266b-45fc-ae21-11d8d87cc90b",
    "region": "Сумська",
    "subregion": "Путивльський",
    "settlement_name": "Юр'єве",
    "street": "вул. Центральна 2-а",
    "coordinates": [51.29484329586688, 34.08613733991058],
    "daily": false,
    "price": 9992,
    "type": "квартира"
  },
  {
    "id": "42eae35d-2882-4a29-8f57-e65c45bd37cd",
    "region": "Сумська",
    "subregion": "Сумський",
    "settlement_name": "Северинівка",
    "street": "вул. Молодіжна 1",
    "coordinates": [50.98815005729728, 34.65885879866062],
    "daily": false,
    "price": 8102,
    "type": "інше"
  },
  {
    "id": "7ae8aaa8-2f6f-4b53-903e-167a03cbf5f6",
    "region": "Сумська",
    "subregion": "Ямпільський",
    "settlement_name": "Ямпіль",
    "street": "вул. Шевченка 3",
    "coordinates": [51.94936471557435, 33.78794250633368],
    "daily": true,
    "price": 5504,
    "type": "квартира"
  },
  {
    "id": "ef7b9eec-d9ed-4b80-a5be-e5a4aed8df88",
    "region": "Тернопільська",
    "subregion": "Бережанський",
    "settlement_name": "Урмань",
    "street": "вул. Сонячна 13",
    "coordinates": [49.57079874242248, 24.95271602545298],
    "daily": false,
    "price": 8253,
    "type": "інше"
  },
  {
    "id": "1947b112-bbcc-42bc-ace6-da8d52a91b1a",
    "region": "Тернопільська",
    "subregion": "Бучацький",
    "settlement_name": "Старі Петликівці",
    "street": "вул. Січових Стрільців 17",
    "coordinates": [49.13684301682256, 25.36860964027308],
    "daily": false,
    "price": 8124,
    "type": "квартира"
  },
  {
    "id": "ae020237-359d-4e75-9c31-4663f88d873f",
    "region": "Тернопільська",
    "subregion": "Збаразький",
    "settlement_name": "Великий Кунинець",
    "street": "вул. М. Коцюбинського 5-в",
    "coordinates": [49.95439155540323, 25.74507124841727],
    "daily": false,
    "price": 4211,
    "type": "квартира"
  },
  {
    "id": "e04c0b68-61aa-45e7-bf5e-9f045c538a4d",
    "region": "Тернопільська",
    "subregion": "Зборівський",
    "settlement_name": "Ярчівці",
    "street": "вул. Шевченка 2",
    "coordinates": [49.6575210924155, 25.21947303829739],
    "daily": true,
    "price": 5822,
    "type": "квартира"
  },
  {
    "id": "affd727a-14ac-432c-a6a5-09e3bcda2a92",
    "region": "Тернопільська",
    "subregion": "Лановецький",
    "settlement_name": "Козачки",
    "street": "вул. Першотравнева 10-а",
    "coordinates": [49.85611746038805, 26.15975107029828],
    "daily": false,
    "price": 6145,
    "type": "офіс"
  },
  {
    "id": "f0ff4bbd-c110-4eb9-945c-3b4c353856c2",
    "region": "Тернопільська",
    "subregion": "Підгаєцький",
    "settlement_name": "Угринів",
    "street": "вул. Центральна 76",
    "coordinates": [49.24971745374447, 25.08524555697692],
    "daily": false,
    "price": 6874,
    "type": "офіс"
  },
  {
    "id": "033d1cc9-34ac-4069-99f4-0bfda59fabb7",
    "region": "Тернопільська",
    "subregion": "Тернопільський",
    "settlement_name": "Серединки",
    "street": "вул. Серединецька null",
    "coordinates": [49.47848384005872, 25.49342220214739],
    "daily": false,
    "price": 3464,
    "type": "офіс"
  },
  {
    "id": "76c608db-959e-45e9-8a86-2dbc43432655",
    "region": "Тернопільська",
    "subregion": "Борщівський",
    "settlement_name": "Скала-Подільська",
    "street": "вул. Крушельницької 33",
    "coordinates": [48.8505735345006, 26.20272126354828],
    "daily": false,
    "price": 4947,
    "type": "інше"
  },
  {
    "id": "ec5067ef-3956-414d-9f44-6168f5e13050",
    "region": "Харківська",
    "subregion": "Харків Основ’янський",
    "settlement_name": "Харків",
    "street": "просп. Гагаріна 312",
    "coordinates": [49.9280647997797, 36.2634515999346],
    "daily": false,
    "price": 8987,
    "type": "квартира"
  },
  {
    "id": "5cd797de-5326-4058-bba2-203d6b776476",
    "region": "Харківська",
    "subregion": "Балаклійський",
    "settlement_name": "Нова Гусарівка",
    "street": "вул. Центральна 55",
    "coordinates": [49.39056041761382, 36.87536671520387],
    "daily": false,
    "price": 9768,
    "type": "квартира"
  },
  {
    "id": "4eb7fb10-6ad2-4a2b-93a0-398fcd94b17f",
    "region": "Харківська",
    "subregion": "Валківський",
    "settlement_name": "Кобзарівка",
    "street": "вул. Центральна 9",
    "coordinates": [49.79075909432569, 35.67201541540158],
    "daily": false,
    "price": 3975,
    "type": "інше"
  },
  {
    "id": "a3a9cd49-040a-4696-9dd9-5952388a6c33",
    "region": "Харківська",
    "subregion": "Зачепилівський",
    "settlement_name": "Чернещина",
    "street": "вул. Центральна null",
    "coordinates": [49.28480994338911, 35.10045013093913],
    "daily": false,
    "price": 1156,
    "type": "квартира"
  },
  {
    "id": "e1b33e9e-e6c5-466c-9b44-a59335236e01",
    "region": "Харківська",
    "subregion": "Кегичівський",
    "settlement_name": "Лозова",
    "street": "вул. Лозівська 99",
    "coordinates": [49.47032346380713, 35.89031470423172],
    "daily": false,
    "price": 9531,
    "type": "офіс"
  },
  {
    "id": "a4ab737b-accf-477c-9227-4921872a2084",
    "region": "Харківська",
    "subregion": "Лозівський",
    "settlement_name": "Тихопілля",
    "street": "вул. Полтавська 46",
    "coordinates": [49.08168457520009, 36.60871040047918],
    "daily": false,
    "price": 6191,
    "type": "інше"
  },
  {
    "id": "186bfe60-798f-4b1d-b828-4eac9d654c35",
    "region": "Харківська",
    "subregion": "Харківський",
    "settlement_name": "Слобідське",
    "street": "вул. Зарічна 11-а",
    "coordinates": [50.01851830772685, 36.44603730337801],
    "daily": false,
    "price": 5167,
    "type": "інше"
  },
  {
    "id": "cad62b4e-6255-4f10-aefb-4c99dd14ed56",
    "region": "Харківська",
    "subregion": "Лозівський",
    "settlement_name": "Краснопавлівка",
    "street": "пл. Незалежності БК`Дніпро`",
    "coordinates": [49.13983878279764, 36.31922633221075],
    "daily": false,
    "price": 8637,
    "type": "склад"
  },
  {
    "id": "20cfd390-43ac-4b8e-b456-e8e5bdc79e8f",
    "region": "Херсонська",
    "subregion": "Голопристанський",
    "settlement_name": "Малі Копані",
    "street": "вул. Гагаріна 19",
    "coordinates": [46.43638179984332, 32.71540760005669],
    "daily": false,
    "price": 1029,
    "type": "інше"
  },
  {
    "id": "d5aafcd2-273e-4ff0-be54-dc46535a384f",
    "region": "Херсонська",
    "subregion": "Великолепетиський",
    "settlement_name": "Демидівка",
    "street": "0.0 null",
    "coordinates": [47.0580478829194, 34.30790111497824],
    "daily": true,
    "price": 8519,
    "type": "інше"
  },
  {
    "id": "fc0b1553-06fd-4df7-9b13-9c5833e07235",
    "region": "Херсонська",
    "subregion": "Каланчацький",
    "settlement_name": "Макарівка",
    "street": "вул. 50 років Перемоги 7",
    "coordinates": [46.23752469993557, 33.53010129994649],
    "daily": true,
    "price": 5184,
    "type": "офіс"
  },
  {
    "id": "301e816a-98f6-498f-a004-ac439694d8cf",
    "region": "Херсонська",
    "subregion": "Херсон",
    "settlement_name": "Петрівка",
    "street": "вул. Шкільна 34",
    "coordinates": [46.83014188756869, 32.6316120609302],
    "daily": false,
    "price": 3459,
    "type": "склад"
  },
  {
    "id": "411a89d0-9aed-448e-8fc9-4478e318d2aa",
    "region": "Хмельницька",
    "subregion": "Ізяславський",
    "settlement_name": "Ізяслав",
    "street": "вул. Незалежності 13",
    "coordinates": [50.11995750017811, 26.82082209997212],
    "daily": false,
    "price": 4518,
    "type": "квартира"
  },
  {
    "id": "1d029244-a21e-4904-88ab-406f403127dd",
    "region": "Хмельницька",
    "subregion": "Віньковецький",
    "settlement_name": "Карижин",
    "street": "вул. Чехова 5",
    "coordinates": [49.03616669993747, 27.23005810000726],
    "daily": false,
    "price": 8052,
    "type": "склад"
  },
  {
    "id": "8682e763-6d10-46ec-8f15-e4a1b74b2061",
    "region": "Хмельницька",
    "subregion": "Деражнянський",
    "settlement_name": "Загінці",
    "street": "вул. Центральна 2",
    "coordinates": [49.20719840009408, 27.15348519998444],
    "daily": false,
    "price": 6248,
    "type": "склад"
  },
  {
    "id": "43b1eb1f-6823-4811-a6d3-9045d3ba096d",
    "region": "Хмельницька",
    "subregion": "Кам'янець-Подільський",
    "settlement_name": "Гринчук",
    "street": "вул. Центральна 1",
    "coordinates": [48.73357559960172, 26.59023630005609],
    "daily": true,
    "price": 2161,
    "type": "склад"
  },
  {
    "id": "9167359a-b771-45da-8f93-ed7ff99beb95",
    "region": "Хмельницька",
    "subregion": "Летичівський",
    "settlement_name": "Гречинці",
    "street": "вул. Світанкова 16",
    "coordinates": [49.49032029978823, 27.51960069999708],
    "daily": false,
    "price": 9282,
    "type": "склад"
  },
  {
    "id": "21c2332f-b615-494d-83eb-e64a283ffe74",
    "region": "Хмельницька",
    "subregion": "Славутський",
    "settlement_name": "Стригани",
    "street": "вул. Одухи 2",
    "coordinates": [50.29769879992121, 26.86611630000733],
    "daily": false,
    "price": 4824,
    "type": "інше"
  },
  {
    "id": "4c775164-04da-4a7c-8174-62b6c92b44e7",
    "region": "Хмельницька",
    "subregion": "Хмельницький",
    "settlement_name": "Везденьки",
    "street": "вул. Центральна 17",
    "coordinates": [49.58282740028181, 26.87356749996642],
    "daily": false,
    "price": 3811,
    "type": "офіс"
  },
  {
    "id": "d9cf4eba-6b1e-4fe7-a48c-3adde4611794",
    "region": "Хмельницька",
    "subregion": "Шепетівський",
    "settlement_name": "Онишківці",
    "street": "вул. К.Маркса 1",
    "coordinates": [49.95409860040232, 27.22624749994969],
    "daily": false,
    "price": 5104,
    "type": "квартира"
  },
  {
    "id": "92d8fbdd-7907-40fd-a578-2a8bd022a725",
    "region": "Черкаська",
    "subregion": "Жашківський",
    "settlement_name": "Жашків",
    "street": "вул.Центральна 2",
    "coordinates": [49.24086042771869, 30.10164359413666],
    "daily": false,
    "price": 7323,
    "type": "склад"
  },
  {
    "id": "d53e52d4-6092-4e70-bbed-db94f87c0bf5",
    "region": "Черкаська",
    "subregion": "Драбівський",
    "settlement_name": "Жорнокльови",
    "street": "вул. Шевченка 37",
    "coordinates": [49.96414569321036, 31.95225918763922],
    "daily": false,
    "price": 2639,
    "type": "склад"
  },
  {
    "id": "26f75f90-ac31-407b-ba48-a57fbf99138f",
    "region": "Черкаська",
    "subregion": "Золотоніський",
    "settlement_name": "Коврай 2",
    "street": "вул. Шевченка 42",
    "coordinates": [49.78175818438911, 31.92716851245537],
    "daily": true,
    "price": 1567,
    "type": "інше"
  },
  {
    "id": "a90d7b8b-4ac3-4381-95d2-4856bf84330d",
    "region": "Черкаська",
    "subregion": "Корсунь-Шевченківський",
    "settlement_name": "Бровахи",
    "street": "вул. Польова 37",
    "coordinates": [49.513289711943, 31.36520947892077],
    "daily": false,
    "price": 6866,
    "type": "склад"
  },
  {
    "id": "c22ded7e-5000-45c9-b815-f384021fec90",
    "region": "Черкаська",
    "subregion": "Монастирищенський",
    "settlement_name": "Жовтневе",
    "street": "вул. Центральна 29",
    "coordinates": [49.03206141333887, 29.66427454490848],
    "daily": true,
    "price": 8152,
    "type": "склад"
  },
  {
    "id": "ccff3a86-1c35-42af-8885-d824a2a550f3",
    "region": "Черкаська",
    "subregion": "Уманський",
    "settlement_name": "Колодисте",
    "street": "вул..Лесі Українки 3",
    "coordinates": [48.48795062968141, 30.12286326273057],
    "daily": false,
    "price": 2153,
    "type": "квартира"
  },
  {
    "id": "e1a40942-e46a-483f-8b4c-774fe3f58eea",
    "region": "Черкаська",
    "subregion": "Чигиринський",
    "settlement_name": "Матвіївка",
    "street": "вул. Перемоги 15",
    "coordinates": [49.06501723757216, 32.42902690261544],
    "daily": false,
    "price": 9814,
    "type": "офіс"
  },
  {
    "id": "f9a285c8-cac3-4572-b209-8182562fa30a",
    "region": "Черкаська",
    "subregion": "Уманський",
    "settlement_name": "Бабанка",
    "street": "вул..Соборна 3",
    "coordinates": [48.70783563789184, 30.45164138707727],
    "daily": true,
    "price": 7800,
    "type": "офіс"
  },
  {
    "id": "465278ca-c89d-4da9-82cd-5f708f0b57df",
    "region": "Чернівецька",
    "subregion": "Глибоцький",
    "settlement_name": "Біла Криниця",
    "street": "вул. Білокриницька 25",
    "coordinates": [47.97283407897741, 25.88776966626877],
    "daily": false,
    "price": 628,
    "type": "офіс"
  },
  {
    "id": "8422d384-540a-458d-952f-d9b83ba9e246",
    "region": "Чернівецька",
    "subregion": "Кіцманський",
    "settlement_name": "Брусенки",
    "street": "вул. Б. Хмельницького 67",
    "coordinates": [48.27692981535397, 25.51681765784763],
    "daily": false,
    "price": 5886,
    "type": "склад"
  },
  {
    "id": "96f2d895-d292-4c6a-9a7c-f6115a05a83d",
    "region": "Чернівецька",
    "subregion": "Сокирянський",
    "settlement_name": "Михалкове",
    "street": "вул.Макаренка 2",
    "coordinates": [48.56300159968568, 27.29498860003073],
    "daily": true,
    "price": 6097,
    "type": "квартира"
  },
  {
    "id": "8286d3da-8e5f-42cb-a16d-0ef41449f1b2",
    "region": "Чернігівська",
    "subregion": "Чернігів",
    "settlement_name": "Чернігів",
    "street": "вул. Шевченка 63",
    "coordinates": [51.50790581950011, 31.34170080403394],
    "daily": false,
    "price": 6656,
    "type": "офіс"
  },
  {
    "id": "3add91d2-7988-4194-ab3b-0276808d72fa",
    "region": "Чернігівська",
    "subregion": "Бобровицький",
    "settlement_name": "Ярославка",
    "street": "вул. Леніна 80-а",
    "coordinates": [50.66901741715017, 31.2910047000558],
    "daily": true,
    "price": 2541,
    "type": "склад"
  },
  {
    "id": "231c3312-c134-4be2-a192-121dcf17401a",
    "region": "Чернігівська",
    "subregion": "Ічнянський",
    "settlement_name": "Іваниця",
    "street": "вул. Петра Жовторіпенка 63",
    "coordinates": [50.78232487228247, 32.63199711904193],
    "daily": true,
    "price": 5478,
    "type": "склад"
  },
  {
    "id": "02687812-3252-4904-ae68-d4eb022cd548",
    "region": "Чернігівська",
    "subregion": "Корюківський",
    "settlement_name": "Домашлин",
    "street": "вул. Центральна 8",
    "coordinates": [51.6492941697221, 32.32814312602275],
    "daily": false,
    "price": 6261,
    "type": "інше"
  },
  {
    "id": "a19191cc-2309-4f09-b52c-16d2df38a555",
    "region": "Чернігівська",
    "subregion": "Ніжинський",
    "settlement_name": "Черняхівка",
    "street": "вул.Леніна 1",
    "coordinates": [51.11591006571334, 32.02865686104983],
    "daily": false,
    "price": 1230,
    "type": "склад"
  },
  {
    "id": "8d31e052-3bbe-4385-bc08-4fc44e8fbaf9",
    "region": "Чернігівська",
    "subregion": "Ріпкинський",
    "settlement_name": "Вербичі",
    "street": "вул.Перемоги 23",
    "coordinates": [51.71536584354291, 31.16657782068388],
    "daily": false,
    "price": 5088,
    "type": "квартира"
  },
  {
    "id": "426759cb-6aa7-49bc-962f-9bb5afe2de42",
    "region": "Чернігівська",
    "subregion": "Чернігівський",
    "settlement_name": "Кархівка",
    "street": "вул. Перемоги 11",
    "coordinates": [51.46329231301174, 30.91282510392462],
    "daily": true,
    "price": 1460,
    "type": "офіс"
  },
  {
    "id": "8d3ff373-e7ad-4aa2-b13e-77eaf4f1ac30",
    "region": "Київ",
    "subregion": "Київ",
    "settlement_name": "Київ",
    "street": "вул. Льва Толстого 49",
    "coordinates": [50.44047440039378, 30.49884139991318],
    "daily": false,
    "price": 7373,
    "type": "офіс"
  },
  {
    "id": "8f06138c-8775-4628-9a09-8c08d52b18db",
    "region": "Київ",
    "subregion": "Святошинський",
    "settlement_name": "Київ",
    "street": "вул. Ушакова 12",
    "coordinates": [50.45802080026108, 30.33968199994143],
    "daily": false,
    "price": 4737,
    "type": "офіс"
  }
]
