[
  {
    "id": "805bfb2f-ad4b-4cae-a32c-2a893ee61814",
    "region": "Вінницька",
    "subregion": "Вінниця",
    "settlement_name": "Вінниця",
    "street": "вул. Пирогова 115",
    "coordinates": [49.21661699956333, 28.43664000004649],
    "daily": false,
    "price": 2285,
    "type": "офіс"
  },
  {
    "id": "9e0caf1c-048f-4e85-9011-25f35e90909d",
    "region": "Вінницька",
    "subregion": "Липовецький",
    "settlement_name": "Липовець",
    "street": "вул. В, Липківського 12",
    "coordinates": [49.22810419992846, 29.05640829998369],
    "daily": false,
    "price": 9837,
    "type": "інше"
  },
  {
    "id": "ac1a6b51-35a7-4829-a8bb-490129ebe16d",
    "region": "Вінницька",
    "subregion": "Барський",
    "settlement_name": "Бар",
    "street": "вул. Вокзальна 1",
    "coordinates": [49.03845709986035, 27.72121780004963],
    "daily": false,
    "price": 4117,
    "type": "квартира"
  },
  {
    "id": "15a0148b-4255-4656-b369-73529d056888",
    "region": "Вінницька",
    "subregion": "Барський",
    "settlement_name": "Сеферівка",
    "street": "вул. Шкільна 70",
    "coordinates": [48.9823346003046, 27.6130074999584],
    "daily": false,
    "price": 9676,
    "type": "склад"
  },
  {
    "id": "23d60757-2962-440f-b6b6-b15d8004ed47",
    "region": "Вінницька",
    "subregion": "Барський",
    "settlement_name": "Ходаки",
    "street": "вул. Дружби 1",
    "coordinates": [49.03192689971399, 27.45519840003199],
    "daily": false,
    "price": 3176,
    "type": "офіс"
  },
  {
    "id": "d2f0b2b6-fbbb-46eb-9281-8b54d9e20804",
    "region": "Вінницька",
    "subregion": "Бершадський",
    "settlement_name": "Шумилів",
    "street": "вул. Шевченка 70-а",
    "coordinates": [48.47707989962061, 29.67761700002828],
    "daily": true,
    "price": 970,
    "type": "офіс"
  },
  {
    "id": "eb6f985e-fbef-4fd8-b640-3cde027081ac",
    "region": "Вінницька",
    "subregion": "Бершадський",
    "settlement_name": "Теофілівка",
    "street": "вул. Центральна 79-а",
    "coordinates": [48.48773560028327, 29.48544909997417],
    "daily": false,
    "price": 8329,
    "type": "квартира"
  },
  {
    "id": "c41fff3b-9cf1-437d-920b-6f23b2286957",
    "region": "Вінницька",
    "subregion": "Вінницький",
    "settlement_name": "Переорки",
    "street": "вул. Т.Шевченка 18-а",
    "coordinates": [49.31886820030741, 28.48919019999338],
    "daily": false,
    "price": 6333,
    "type": "офіс"
  },
  {
    "id": "301b02b2-5c23-45cd-a9a0-1f3d12caa217",
    "region": "Вінницька",
    "subregion": "Гайсинський",
    "settlement_name": "Кисляк",
    "street": "вул. Жанова 10",
    "coordinates": [48.84063869964776, 29.41849559998102],
    "daily": true,
    "price": 8038,
    "type": "квартира"
  },
  {
    "id": "b664111a-dc7b-4560-990e-729f7168043c",
    "region": "Вінницька",
    "subregion": "Гайсинський",
    "settlement_name": "Харпачка",
    "street": "вул. Центральна 9-а",
    "coordinates": [48.74274430031889, 29.21293950002697],
    "daily": true,
    "price": 7344,
    "type": "склад"
  },
  {
    "id": "0b1acd77-51ed-405d-b80b-700fcf0f9b43",
    "region": "Вінницька",
    "subregion": "Жмеринський",
    "settlement_name": "Лисогірка",
    "street": "вул. Центральна null",
    "coordinates": [49.23352790036657, 27.97901949990874],
    "daily": false,
    "price": 9623,
    "type": "офіс"
  },
  {
    "id": "c6d8c5da-00e5-4722-8b81-74f0695861da",
    "region": "Вінницька",
    "subregion": "Жмеринський",
    "settlement_name": "Телелинці",
    "street": "вул. Центральна 1",
    "coordinates": [48.91732809967557, 28.00025410005704],
    "daily": false,
    "price": 1935,
    "type": "офіс"
  },
  {
    "id": "2a518d0c-ca49-40ab-af98-388c2e81f2d5",
    "region": "Вінницька",
    "subregion": "Іллінецький",
    "settlement_name": "Купчинці",
    "street": "вул. Шевченка 1",
    "coordinates": [49.03233449978337, 29.47674979997583],
    "daily": false,
    "price": 4072,
    "type": "інше"
  },
  {
    "id": "6dda1bda-f749-4eb4-a8ee-876163d8df38",
    "region": "Вінницька",
    "subregion": "Калинівський",
    "settlement_name": "Мирне",
    "street": "вул. Миру 2",
    "coordinates": [49.45654319959372, 28.72385880004965],
    "daily": false,
    "price": 9110,
    "type": "офіс"
  },
  {
    "id": "146927f0-e9a3-43f9-90ea-2e8c23a66582",
    "region": "Вінницька",
    "subregion": "Калинівський",
    "settlement_name": "Хомутинці",
    "street": "вул.Першотравнева 2",
    "coordinates": [49.54434419993014, 28.43348399999744],
    "daily": false,
    "price": 7057,
    "type": "офіс"
  },
  {
    "id": "036aa7da-951e-42d6-9aff-a956fb5903ce",
    "region": "Вінницька",
    "subregion": "Козятинський",
    "settlement_name": "Махаринці",
    "street": "вул. Центральна 54",
    "coordinates": [49.70882349970915, 28.91402990000266],
    "daily": false,
    "price": 8454,
    "type": "офіс"
  },
  {
    "id": "44dffaf7-5992-407c-aff0-05533359df23",
    "region": "Вінницька",
    "subregion": "Крижопільський",
    "settlement_name": "Княжа Криниця",
    "street": "вул. Миру 15",
    "coordinates": [48.36064760011019, 28.68393199998501],
    "daily": false,
    "price": 6777,
    "type": "склад"
  },
  {
    "id": "8af3751b-760b-44c9-bf61-f309b9a38117",
    "region": "Вінницька",
    "subregion": "Липовецький",
    "settlement_name": "Біла",
    "street": "вул. Миру 51",
    "coordinates": [49.39071680044596, 28.91213289991309],
    "daily": false,
    "price": 1276,
    "type": "інше"
  },
  {
    "id": "1b6d2e36-e9d9-42cd-8a39-0c80903edda4",
    "region": "Вінницька",
    "subregion": "Липовецький",
    "settlement_name": "Сиваківці",
    "street": "вул. Центральна 7",
    "coordinates": [49.32703799957225, 28.66613830008239],
    "daily": false,
    "price": 7646,
    "type": "інше"
  },
  {
    "id": "28d59c2a-9bbd-4326-ba87-ff26d062d783",
    "region": "Вінницька",
    "subregion": "Літинський",
    "settlement_name": "Журавне",
    "street": "вул. Центральна 59",
    "coordinates": [49.50671410030571, 28.18004029997377],
    "daily": true,
    "price": 6769,
    "type": "інше"
  },
  {
    "id": "aaa5403b-3bcc-4cdc-a9e0-00099b2edef1",
    "region": "Вінницька",
    "subregion": "Літинський",
    "settlement_name": "Уладівка",
    "street": "вул. Заводська 1",
    "coordinates": [49.49555559976179, 28.23055549999295],
    "daily": false,
    "price": 2011,
    "type": "квартира"
  },
  {
    "id": "cf7d1fa6-a824-407c-b7de-70c7dd8729c2",
    "region": "Вінницька",
    "subregion": "Могилів-Подільський",
    "settlement_name": "Нижній Ольчедаїв",
    "street": "вул. Піонерська 47",
    "coordinates": [48.63303889958835, 27.66823050000626],
    "daily": true,
    "price": 7721,
    "type": "офіс"
  },
  {
    "id": "a3136e3c-d8f4-41fd-b6c7-10e871441937",
    "region": "Вінницька",
    "subregion": "Могилів-Подільський",
    "settlement_name": "Яруга",
    "street": "вул. Дністровська 39",
    "coordinates": [48.42503389977252, 27.82564670004587],
    "daily": false,
    "price": 2939,
    "type": "інше"
  },
  {
    "id": "27368897-aaa6-42d8-adb6-816db9010f6d",
    "region": "Вінницька",
    "subregion": "Мурованокуриловецький",
    "settlement_name": "Роздолівка",
    "street": "вул. Центральна 15",
    "coordinates": [48.71893760027373, 27.56701299990743],
    "daily": false,
    "price": 5664,
    "type": "інше"
  },
  {
    "id": "3155db77-b78e-4d1d-9b55-dcbc6777057f",
    "region": "Вінницька",
    "subregion": "Немирівський",
    "settlement_name": "Зяньківці",
    "street": "вул. Перемоги 55-а",
    "coordinates": [48.81471089994152, 29.09146900002556],
    "daily": true,
    "price": 9504,
    "type": "інше"
  },
  {
    "id": "fa26022e-383a-4ff4-9e15-207c59c3ebfe",
    "region": "Вінницька",
    "subregion": "Немирівський",
    "settlement_name": "Семенки",
    "street": "вул. Молодіжна 15-а",
    "coordinates": [48.847348699946, 29.10741429997795],
    "daily": false,
    "price": 1724,
    "type": "інше"
  },
  {
    "id": "ce324b6d-3ecd-4a39-9cb7-b46c616eb2a6",
    "region": "Вінницька",
    "subregion": "Оратівський",
    "settlement_name": "Підвисоке",
    "street": "вул.Центральна 29",
    "coordinates": [49.07502490042685, 29.60028849996702],
    "daily": false,
    "price": 7079,
    "type": "офіс"
  },
  {
    "id": "092fb329-71de-463d-a8f4-a9007351ba01",
    "region": "Вінницька",
    "subregion": "Піщанський",
    "settlement_name": "Грабарівка",
    "street": "вул. Центральна 15",
    "coordinates": [48.16044160039013, 28.63739590002789],
    "daily": false,
    "price": 8237,
    "type": "офіс"
  },
  {
    "id": "621d8df5-38ca-46c1-986f-1db57bc25a42",
    "region": "Вінницька",
    "subregion": "Погребищенський",
    "settlement_name": "Левківка",
    "street": "вул. Садова 8",
    "coordinates": [49.46388690024185, 29.00215209991224],
    "daily": false,
    "price": 7221,
    "type": "квартира"
  },
  {
    "id": "414d24dc-e2a0-48f7-b152-5b215225b6dc",
    "region": "Вінницька",
    "subregion": "Погребищенський",
    "settlement_name": "Спичинці",
    "street": "вул. Поштова null",
    "coordinates": [49.40876280020248, 29.15737459998495],
    "daily": false,
    "price": 1615,
    "type": "інше"
  },
  {
    "id": "a9cb27cd-8f41-4c99-a84d-a9bfacd35849",
    "region": "Вінницька",
    "subregion": "Теплицький",
    "settlement_name": "Марківка",
    "street": "вул. Леонтовича 4",
    "coordinates": [48.7185225003976, 29.68674940001257],
    "daily": false,
    "price": 9622,
    "type": "склад"
  },
  {
    "id": "8743e92a-7f4a-401d-a8ee-5f26f6bbf80c",
    "region": "Вінницька",
    "subregion": "Тиврівський",
    "settlement_name": "Ворошилівка",
    "street": "вул.Центральна 24-а",
    "coordinates": [49.04193759997143, 28.33483420002172],
    "daily": false,
    "price": 3158,
    "type": "офіс"
  },
  {
    "id": "afca4551-732e-44cc-8154-09ae1cb80fcd",
    "region": "Вінницька",
    "subregion": "Тиврівський",
    "settlement_name": "Шершні",
    "street": "вул. Миру 21",
    "coordinates": [49.02480949993387, 28.43605930000265],
    "daily": false,
    "price": 5492,
    "type": "склад"
  },
  {
    "id": "a10630f5-fc6a-4a7e-be4a-3ada044049f9",
    "region": "Вінницька",
    "subregion": "Томашпільський",
    "settlement_name": "Пеньківка",
    "street": "вул. Комсомольська 3",
    "coordinates": [48.5809107000016, 28.42020049995111],
    "daily": false,
    "price": 9533,
    "type": "офіс"
  },
  {
    "id": "0cb20ed5-2c6e-4049-8e28-0cd97ee8ef77",
    "region": "Вінницька",
    "subregion": "Тростянецький",
    "settlement_name": "Бережанка",
    "street": "вул. Шкільна 5",
    "coordinates": [48.39469500014711, 29.18734060000912],
    "daily": false,
    "price": 8259,
    "type": "склад"
  },
  {
    "id": "c313a1d6-2420-416b-bd5b-7bf6f15f68c0",
    "region": "Вінницька",
    "subregion": "Тульчинський",
    "settlement_name": "Василівка",
    "street": "вул. Лісова 29",
    "coordinates": [48.69847699969741, 29.10961260002363],
    "daily": false,
    "price": 5452,
    "type": "інше"
  },
  {
    "id": "c183974f-d4ef-45d0-b565-c141d8fbe987",
    "region": "Вінницька",
    "subregion": "Тульчинський",
    "settlement_name": "Шуро-Копіївка",
    "street": "вул. Шевченка 113",
    "coordinates": [48.71215050034872, 28.7162638999164],
    "daily": true,
    "price": 6527,
    "type": "інше"
  },
  {
    "id": "162695e7-f23a-49c8-b5a2-040d661ad756",
    "region": "Вінницька",
    "subregion": "Хмільницький",
    "settlement_name": "Лозна",
    "street": "вул. Гагаріна 11",
    "coordinates": [49.65403169972285, 28.22932910003809],
    "daily": false,
    "price": 6055,
    "type": "склад"
  },
  {
    "id": "7b1596a2-23ef-433a-943c-f927a299c1de",
    "region": "Вінницька",
    "subregion": "Хмільницький",
    "settlement_name": "Воронівці",
    "street": "вул. Шкільна 25",
    "coordinates": [49.6667360996849, 28.17608080006872],
    "daily": true,
    "price": 2087,
    "type": "склад"
  },
  {
    "id": "f0e57d49-32c9-4e4b-b0e3-427a8be79eef",
    "region": "Вінницька",
    "subregion": "Чернівецький",
    "settlement_name": "Саїнка",
    "street": "вул. Церковна 2",
    "coordinates": [48.55096200041449, 28.19169659991813],
    "daily": false,
    "price": 3605,
    "type": "офіс"
  },
  {
    "id": "b1108929-d1ca-4bc8-86e9-ca8f5017b9f1",
    "region": "Вінницька",
    "subregion": "Шаргородський",
    "settlement_name": "Гибалівка",
    "street": "вул. Зої Космодем’янської 3",
    "coordinates": [48.73539319991808, 28.0958053999534],
    "daily": false,
    "price": 1781,
    "type": "квартира"
  },
  {
    "id": "9cc17361-2893-4b83-b2fe-e12daf03a569",
    "region": "Вінницька",
    "subregion": "Шаргородський",
    "settlement_name": "Носиківка",
    "street": "вул. Привітна 10-а",
    "coordinates": [48.80981330026232, 28.05637129999792],
    "daily": false,
    "price": 4975,
    "type": "склад"
  },
  {
    "id": "e4eae499-604e-46f3-b675-baddd80606e9",
    "region": "Вінницька",
    "subregion": "Ямпільський",
    "settlement_name": "Велика Кісниця",
    "street": "вул. Центральна 78",
    "coordinates": [48.13574309976521, 28.44916490004197],
    "daily": false,
    "price": 6775,
    "type": "офіс"
  },
  {
    "id": "14a0560a-99a8-400d-9a74-b1629db9c753",
    "region": "Вінницька",
    "subregion": "Тиврівський",
    "settlement_name": "Колюхів",
    "street": "вул. 1 Травня 9",
    "coordinates": [48.98910380003333, 28.63357679995016],
    "daily": true,
    "price": 5654,
    "type": "квартира"
  },
  {
    "id": "7741026a-772b-46d9-8199-b31ad943969b",
    "region": "Вінницька",
    "subregion": "Немирівський",
    "settlement_name": "Брацлав",
    "street": "вул. Шкільна 4",
    "coordinates": [48.81627060034265, 28.94619889996774],
    "daily": true,
    "price": 2538,
    "type": "склад"
  },
  {
    "id": "b5ff6b47-c602-4ca6-8e3d-1bd56e9b65c4",
    "region": "Вінницька",
    "subregion": "Чернівецький",
    "settlement_name": "Чернівці",
    "street": "вул. Святомиколаївська 78",
    "coordinates": [48.30371816301928, 28.65803012421908],
    "daily": true,
    "price": 7518,
    "type": "офіс"
  },
  {
    "id": "dede4d47-ee77-4ab4-a914-b1e0a5abfad9",
    "region": "Волинська",
    "subregion": "Ковельский",
    "settlement_name": "Ковель",
    "street": "вул. Мечнікова 2",
    "coordinates": [51.2083547548119, 24.72309896450429],
    "daily": false,
    "price": 5781,
    "type": "квартира"
  },
  {
    "id": "151c4dbe-a13f-48ee-9a68-47fd6d4e9ad1",
    "region": "Волинська",
    "subregion": "Луцьк",
    "settlement_name": "Луцьк",
    "street": "вул. Д. Гордіюк 6",
    "coordinates": [50.77474029985809, 25.35847920002185],
    "daily": false,
    "price": 5566,
    "type": "склад"
  },
  {
    "id": "901767ee-4707-40f9-93bb-f6516f527ee5",
    "region": "Волинська",
    "subregion": "Володимир-Волинський",
    "settlement_name": "Микитичі",
    "street": "вул. Молодіжна 25",
    "coordinates": [50.95442318629942, 24.06408624413375],
    "daily": false,
    "price": 692,
    "type": "склад"
  },
  {
    "id": "09fbcd2b-ff73-46fe-a8da-c4e0539b0a26",
    "region": "Волинська",
    "subregion": "Горохівський",
    "settlement_name": "Журавники",
    "street": "вул. Львівська 17",
    "coordinates": [50.42403965043091, 24.68063706265046],
    "daily": false,
    "price": 4425,
    "type": "інше"
  },
  {
    "id": "9b2330d6-7bf4-4505-b41b-d3e778c51215",
    "region": "Волинська",
    "subregion": "Горохівський",
    "settlement_name": "Скірче",
    "street": "вул. Ватинська 1-а",
    "coordinates": [50.63978374325899, 24.96715058068766],
    "daily": true,
    "price": 8887,
    "type": "склад"
  },
  {
    "id": "85bf9de5-5175-4f5f-ba82-483bfba15885",
    "region": "Волинська",
    "subregion": "Іваничівський",
    "settlement_name": "Милятин",
    "street": "вул. Жилякова 36",
    "coordinates": [50.55874616622403, 24.54083718876207],
    "daily": false,
    "price": 9059,
    "type": "інше"
  },
  {
    "id": "bd11f0e8-41a6-4e9e-abef-f9fb6a15a7fe",
    "region": "Волинська",
    "subregion": "Камінь-Каширський",
    "settlement_name": "Видричі",
    "street": "вул. Центральна 49",
    "coordinates": [51.64290259715398, 24.77070827965594],
    "daily": false,
    "price": 8292,
    "type": "офіс"
  },
  {
    "id": "85c95678-9325-4ed5-b8fd-491dd73ec454",
    "region": "Волинська",
    "subregion": "Камінь-Каширський",
    "settlement_name": "Оленине",
    "street": "вул. Торгова 66",
    "coordinates": [51.53627577327243, 25.32183021950162],
    "daily": false,
    "price": 978,
    "type": "інше"
  },
  {
    "id": "8d97390e-05f9-4adc-a977-aad9867bda54",
    "region": "Волинська",
    "subregion": "Ківерцівський",
    "settlement_name": "Башлики",
    "street": "вул. Шкільна 38",
    "coordinates": [50.82359685437456, 25.84350707125924],
    "daily": false,
    "price": 1485,
    "type": "квартира"
  },
  {
    "id": "a7cbc799-b37c-4a69-9d99-b5db299d3e62",
    "region": "Волинська",
    "subregion": "Ківерцівський",
    "settlement_name": "Кадище",
    "street": "вул. Зелена 6-а",
    "coordinates": [50.77889497870178, 25.88197798718383],
    "daily": false,
    "price": 4919,
    "type": "інше"
  },
  {
    "id": "0e21ad24-f67b-4307-a7d5-87e0547d4103",
    "region": "Волинська",
    "subregion": "Ківерцівський",
    "settlement_name": "Суськ",
    "street": "вул. Молодіжна 21",
    "coordinates": [50.95321676832712, 25.42693978088855],
    "daily": false,
    "price": 7065,
    "type": "склад"
  },
  {
    "id": "f0406b41-3047-4942-b52b-3f1aaaba7b93",
    "region": "Волинська",
    "subregion": "Ковельский",
    "settlement_name": "Любитів",
    "street": "вул. Незалежності 68",
    "coordinates": [51.14543242155352, 24.83472320673951],
    "daily": false,
    "price": 8919,
    "type": "офіс"
  },
  {
    "id": "e15efabd-5f5e-4009-ad61-536ad1cc48a9",
    "region": "Волинська",
    "subregion": "Локачинський",
    "settlement_name": "Затурці",
    "street": "вул. Липинського 54",
    "coordinates": [50.78099374644786, 24.84678519800275],
    "daily": false,
    "price": 5611,
    "type": "інше"
  },
  {
    "id": "50ae79d1-4336-48c8-9530-af62ce3c4ac1",
    "region": "Волинська",
    "subregion": "Луцький",
    "settlement_name": "Баківці",
    "street": "вул. Перемоги 9-а",
    "coordinates": [50.59122446662625, 25.26746435889036],
    "daily": true,
    "price": 6748,
    "type": "інше"
  },
  {
    "id": "4f1d684e-100b-4ec7-b965-c25a53d8e818",
    "region": "Волинська",
    "subregion": "Луцький",
    "settlement_name": "Несвіч",
    "street": "вул. Центральна 53",
    "coordinates": [50.61121665805133, 25.1545081664567],
    "daily": false,
    "price": 1897,
    "type": "офіс"
  },
  {
    "id": "81a880ba-1ae0-425a-b43e-7fbc000efa3d",
    "region": "Волинська",
    "subregion": "Любешівський",
    "settlement_name": "Великий Курінь",
    "street": "вул. Незалежності 55",
    "coordinates": [51.79283901911152, 25.43476417161467],
    "daily": false,
    "price": 8244,
    "type": "склад"
  },
  {
    "id": "d13766f8-6c76-4d3e-a93c-dc77ecb10db3",
    "region": "Волинська",
    "subregion": "Любешівський",
    "settlement_name": "Судче",
    "street": "вул. Ланевича 12-а",
    "coordinates": [51.7327297228446, 25.58773422678025],
    "daily": false,
    "price": 3779,
    "type": "офіс"
  },
  {
    "id": "1e98d9c9-5636-4a18-84cb-31181365a803",
    "region": "Волинська",
    "subregion": "Любомльський",
    "settlement_name": "Олеськ",
    "street": "вул. Любомльська 1",
    "coordinates": [51.10287779546843, 24.18052049108184],
    "daily": true,
    "price": 9935,
    "type": "офіс"
  },
  {
    "id": "141cbaba-f251-43dd-95bf-9cc46bd98a15",
    "region": "Волинська",
    "subregion": "Маневицький",
    "settlement_name": "Годомичі",
    "street": "вул. Шкільна 8",
    "coordinates": [51.06201399080258, 25.50996171894893],
    "daily": false,
    "price": 7614,
    "type": "інше"
  },
  {
    "id": "13044af4-c712-4ef5-83ca-1c7addb82810",
    "region": "Волинська",
    "subregion": "Маневицький",
    "settlement_name": "Прилісне",
    "street": "вул. Сойне 2-а",
    "coordinates": [51.37412835219519, 25.52409323827286],
    "daily": false,
    "price": 6123,
    "type": "склад"
  },
  {
    "id": "a1f93ce3-e08c-4977-a80a-87e288f51285",
    "region": "Волинська",
    "subregion": "Ратнівський",
    "settlement_name": "Здомишель",
    "street": "вул. Шевченка 35",
    "coordinates": [51.62608660271064, 24.43065968599897],
    "daily": false,
    "price": 9130,
    "type": "склад"
  },
  {
    "id": "97e739d8-7140-485c-943d-63e9661ec949",
    "region": "Волинська",
    "subregion": "Рожищенський",
    "settlement_name": "Городині",
    "street": "вул. Центральна 11-а",
    "coordinates": [50.84502872571294, 25.03405982910178],
    "daily": false,
    "price": 8092,
    "type": "квартира"
  },
  {
    "id": "577d2539-e3cf-4ff4-b693-518510077aeb",
    "region": "Волинська",
    "subregion": "Рожищенський",
    "settlement_name": "Тристень",
    "street": "вул. Незалежності 44",
    "coordinates": [50.92731435227252, 24.93258992805247],
    "daily": true,
    "price": 2218,
    "type": "склад"
  },
  {
    "id": "8ea26f77-ac0a-4293-9b34-396e12638946",
    "region": "Волинська",
    "subregion": "Старовижівський",
    "settlement_name": "Сереховичі",
    "street": "вул. Радянська 24",
    "coordinates": [51.40811373257078, 24.67187586881036],
    "daily": false,
    "price": 9347,
    "type": "склад"
  },
  {
    "id": "9540b732-9e33-445d-bf77-5ee76035e77d",
    "region": "Волинська",
    "subregion": "Турійський",
    "settlement_name": "Осьмиговичі",
    "street": "вул. Центральна 12",
    "coordinates": [50.92205518058028, 24.79544248476462],
    "daily": false,
    "price": 647,
    "type": "склад"
  },
  {
    "id": "f25243f0-ec21-4509-ba1f-6d9787bd4ab6",
    "region": "Волинська",
    "subregion": "Шацький",
    "settlement_name": "Пульмо",
    "street": "вул. Калініна 173",
    "coordinates": [51.51231127762333, 23.77604889613195],
    "daily": false,
    "price": 8320,
    "type": "інше"
  },
  {
    "id": "66db3464-9563-4576-9e5f-e8734dc1026d",
    "region": "Волинська",
    "subregion": "Луцький",
    "settlement_name": "Рокині",
    "street": "вул. Шкільна 1",
    "coordinates": [50.83143439977979, 25.25839450003532],
    "daily": true,
    "price": 1617,
    "type": "інше"
  },
  {
    "id": "bc8f0163-b0b0-43dc-9455-30c84a135ba6",
    "region": "Волинська",
    "subregion": "Шацький",
    "settlement_name": "Шацьк",
    "street": "вул. Шковороди 13",
    "coordinates": [51.49056023330832, 23.92518056604197],
    "daily": false,
    "price": 6779,
    "type": "склад"
  },
  {
    "id": "767f1672-1735-45c4-83e3-4ebd4f2d9186",
    "region": "Дніпропетровська",
    "subregion": "Дніпро Соборний",
    "settlement_name": "Дніпро",
    "street": "вул.Абхазька 4",
    "coordinates": [48.42442436048785, 35.03358695331368],
    "daily": false,
    "price": 7061,
    "type": "офіс"
  },
  {
    "id": "78664de4-095a-420f-8ed5-2324a3c5e3c5",
    "region": "Дніпропетровська",
    "subregion": "Дніпро Амур-Нижньодніпровський",
    "settlement_name": "Дніпро",
    "street": "пров. Тульчинський 1",
    "coordinates": [48.50692239987836, 35.01973289999177],
    "daily": false,
    "price": 7379,
    "type": "квартира"
  },
  {
    "id": "b88ede29-f1d7-4dca-ab46-81cfd016a49a",
    "region": "Дніпропетровська",
    "subregion": "Дніпро Новокодакський",
    "settlement_name": "Дніпро",
    "street": "вул. Флангова 38",
    "coordinates": [48.45051300007365, 34.96729390002719],
    "daily": false,
    "price": 7652,
    "type": "склад"
  },
  {
    "id": "933a4453-6608-4049-837f-9be9bfffb752",
    "region": "Дніпропетровська",
    "subregion": "Кривий Ріг Довгинцівський",
    "settlement_name": "Кривий Ріг",
    "street": "вул. Мухіної 15",
    "coordinates": [47.89929910001045, 33.4544189999711],
    "daily": false,
    "price": 8819,
    "type": "склад"
  },
  {
    "id": "29cda938-afbd-4648-8bd1-41ad20dc744a",
    "region": "Дніпропетровська",
    "subregion": "Кривий Ріг Центрально-Міський",
    "settlement_name": "Кривий Ріг",
    "street": "вул. Хмельова 9",
    "coordinates": [47.900550173063, 33.33730284996716],
    "daily": true,
    "price": 4960,
    "type": "офіс"
  },
  {
    "id": "90693a49-d8a2-4e0f-9239-2d8bec0f2395",
    "region": "Дніпропетровська",
    "subregion": "Кривий Ріг Тернівський",
    "settlement_name": "Кривий Ріг",
    "street": "вул. Чарівна 20",
    "coordinates": [48.07643738497304, 33.51827577707503],
    "daily": true,
    "price": 4230,
    "type": "офіс"
  },
  {
    "id": "eb88c35b-d34a-4559-8aa4-9c46c4db5ab9",
    "region": "Дніпропетровська",
    "subregion": "Покров",
    "settlement_name": "Покров",
    "street": "вул. Центральна 7",
    "coordinates": [47.65664750037175, 34.1021759999651],
    "daily": false,
    "price": 2621,
    "type": "офіс"
  },
  {
    "id": "39680953-9012-422f-be63-2bcaed16c94b",
    "region": "Дніпропетровська",
    "subregion": "Верхньодніпровський",
    "settlement_name": "Верхівцеве",
    "street": "вул. Центральна 73",
    "coordinates": [48.48141460408124, 34.23756672154055],
    "daily": true,
    "price": 9749,
    "type": "квартира"
  },
  {
    "id": "3d591108-cb5a-4e5e-be7c-c734e34c5f2d",
    "region": "Дніпропетровська",
    "subregion": "Апостолівський",
    "settlement_name": "Нива Трудова",
    "street": "вул. Каштанова 8",
    "coordinates": [47.72740301249463, 33.62155175096346],
    "daily": false,
    "price": 1965,
    "type": "склад"
  },
  {
    "id": "e33a783f-97b1-445c-a09f-afb6c95ba266",
    "region": "Дніпропетровська",
    "subregion": "Васильківський",
    "settlement_name": "Дубовики",
    "street": "вул. Центральна 2",
    "coordinates": [48.23806746808076, 36.21832606543943],
    "daily": false,
    "price": 6993,
    "type": "квартира"
  },
  {
    "id": "fd52e247-a507-40e1-a722-3a58d753714c",
    "region": "Дніпропетровська",
    "subregion": "Верхньодніпровський",
    "settlement_name": "Підлужжя",
    "street": "вул. Громова 121-а",
    "coordinates": [48.63530940102333, 34.3057995222273],
    "daily": true,
    "price": 6764,
    "type": "інше"
  },
  {
    "id": "267de78f-8181-41ef-95e3-09b7b64f244d",
    "region": "Дніпропетровська",
    "subregion": "Дніпровський",
    "settlement_name": "Сурсько-Литовське",
    "street": "вул. Центральна 6",
    "coordinates": [48.33736682077668, 34.93616673961989],
    "daily": true,
    "price": 5725,
    "type": "квартира"
  },
  {
    "id": "790587c6-3884-4776-b406-d622e9c780bf",
    "region": "Дніпропетровська",
    "subregion": "Криворізький",
    "settlement_name": "Червоне",
    "street": "вул. Гагаріна 18",
    "coordinates": [48.22297022168159, 33.53695781739838],
    "daily": true,
    "price": 8986,
    "type": "склад"
  },
  {
    "id": "898049ab-a155-4fab-a8e2-f1c5fb559644",
    "region": "Дніпропетровська",
    "subregion": "Криничанський",
    "settlement_name": "Семенівка",
    "street": "вул. Миронівська 21",
    "coordinates": [48.462603313243, 34.32925253965425],
    "daily": false,
    "price": 3397,
    "type": "квартира"
  },
  {
    "id": "3e07e61a-a26c-482b-8774-e5a5d0867221",
    "region": "Дніпропетровська",
    "subregion": "Магдалинівський",
    "settlement_name": "Оленівка",
    "street": "вул. Широка 13",
    "coordinates": [48.94597741289012, 34.99011953380134],
    "daily": false,
    "price": 3738,
    "type": "офіс"
  },
  {
    "id": "c19d41a6-99db-4dfe-ad38-5b36495bcefc",
    "region": "Дніпропетровська",
    "subregion": "Межівський",
    "settlement_name": "Новогригорівка",
    "street": "вул. Центральна 75-а",
    "coordinates": [48.43318032213314, 36.63961942360087],
    "daily": false,
    "price": 3642,
    "type": "інше"
  },
  {
    "id": "83074f79-f14c-4f95-8036-ed975f4b1705",
    "region": "Дніпропетровська",
    "subregion": "Нікопольський",
    "settlement_name": "Павлопілля",
    "street": "вул. Центральна 3",
    "coordinates": [47.87827068259545, 34.04908022290643],
    "daily": true,
    "price": 6113,
    "type": "склад"
  },
  {
    "id": "49ca60be-b942-4371-a362-b25353c0073c",
    "region": "Дніпропетровська",
    "subregion": "Новомосковський",
    "settlement_name": "Євецько-Миколаївка",
    "street": "вул. Центральна 28",
    "coordinates": [48.79973793822391, 35.3603249880612],
    "daily": false,
    "price": 4248,
    "type": "квартира"
  },
  {
    "id": "7d14d464-b40f-4762-82be-61ac987bdbe2",
    "region": "Дніпропетровська",
    "subregion": "Новомосковський",
    "settlement_name": "Спаське",
    "street": "вул. Маяковського 1-а",
    "coordinates": [48.64764224979124, 35.04697522436401],
    "daily": true,
    "price": 3796,
    "type": "склад"
  },
  {
    "id": "ab2fe68b-f745-4db5-95da-f238619f4a17",
    "region": "Дніпропетровська",
    "subregion": "Петропавлівський",
    "settlement_name": "Лозове",
    "street": "вул. Центральна 66",
    "coordinates": [48.35646272192867, 36.53972450879689],
    "daily": false,
    "price": 576,
    "type": "офіс"
  },
  {
    "id": "b0d8b02c-7fc7-440a-9799-e40ae0e4280d",
    "region": "Дніпропетровська",
    "subregion": "Петриківський",
    "settlement_name": "Мала Петрівка",
    "street": "вул. Шкільна 3",
    "coordinates": [48.68755018257715, 34.67398017713709],
    "daily": false,
    "price": 8522,
    "type": "інше"
  },
  {
    "id": "cf16cfe1-d005-4a35-97e7-c6616e91a71a",
    "region": "Дніпропетровська",
    "subregion": "Покровський",
    "settlement_name": "Левадне",
    "street": "вул. Центральна 5",
    "coordinates": [47.99685670196695, 36.17885202773263],
    "daily": false,
    "price": 7447,
    "type": "офіс"
  },
  {
    "id": "e406ff0d-0c8b-46fa-ad43-463fb2ce57c3",
    "region": "Дніпропетровська",
    "subregion": "П'ятихатський",
    "settlement_name": "Саївка",
    "street": "вул. Центральна 1",
    "coordinates": [48.34891737806395, 33.87294184193373],
    "daily": false,
    "price": 6324,
    "type": "склад"
  },
  {
    "id": "b9138dcc-4ef1-4b27-bc34-1096e2435a8b",
    "region": "Дніпропетровська",
    "subregion": "Синельниківський",
    "settlement_name": "Новогніде",
    "street": "вул. Центральна 17",
    "coordinates": [48.30615389467265, 35.48713457986545],
    "daily": true,
    "price": 1500,
    "type": "склад"
  },
  {
    "id": "ed6f5a31-7363-4b63-a284-b85bf8563f72",
    "region": "Дніпропетровська",
    "subregion": "Солонянський",
    "settlement_name": "Криничка",
    "street": "вул. Центральна 8",
    "coordinates": [47.98515041420917, 34.55847374961891],
    "daily": false,
    "price": 3713,
    "type": "склад"
  },
  {
    "id": "fe1e5fb9-fb1f-4ac7-9001-8944eee6ae7f",
    "region": "Дніпропетровська",
    "subregion": "Софіївський",
    "settlement_name": "Авдотівка",
    "street": "вул. Центральна 23",
    "coordinates": [47.97323659457701, 33.68714896652045],
    "daily": false,
    "price": 9763,
    "type": "офіс"
  },
  {
    "id": "abfa5ace-accc-4d4e-b1ce-13ff93ea87f1",
    "region": "Дніпропетровська",
    "subregion": "Софіївський",
    "settlement_name": "Перше Травня",
    "street": "вул. 30-річчя Перемоги 70",
    "coordinates": [48.17522507396736, 33.88291153511634],
    "daily": false,
    "price": 3778,
    "type": "інше"
  },
  {
    "id": "ff7e94d2-707e-4264-8dcb-b46d0cfc53dc",
    "region": "Дніпропетровська",
    "subregion": "Царичанський",
    "settlement_name": "Михайлівка",
    "street": "вул. Вороного 6",
    "coordinates": [49.09389441523084, 34.64410490840184],
    "daily": false,
    "price": 4841,
    "type": "склад"
  },
  {
    "id": "20664749-849d-4bc1-8325-2bf6bb1d2a3a",
    "region": "Дніпропетровська",
    "subregion": "Широківський",
    "settlement_name": "Новоселівка",
    "street": "вул. Миру 19",
    "coordinates": [47.77176299811714, 33.26266900278478],
    "daily": false,
    "price": 5322,
    "type": "інше"
  },
  {
    "id": "c04653d6-a061-459d-9190-63f26290ca9f",
    "region": "Дніпропетровська",
    "subregion": "Юр'ївський",
    "settlement_name": "Чаплинка",
    "street": "вул. Каштанова 14",
    "coordinates": [48.8674933936446, 35.78061693246098],
    "daily": true,
    "price": 2145,
    "type": "склад"
  },
  {
    "id": "34906ec6-ab88-4836-ae9d-840230a9f055",
    "region": "Дніпропетровська",
    "subregion": "Магдалинівський",
    "settlement_name": "Магдалинівка",
    "street": "вул. Центральна 38",
    "coordinates": [48.92155093881983, 34.91252108064063],
    "daily": true,
    "price": 5059,
    "type": "квартира"
  },
  {
    "id": "953b1ec3-d112-4bdc-8b0b-b481055c4320",
    "region": "Дніпропетровська",
    "subregion": "Синельниківський",
    "settlement_name": "Славгород",
    "street": "вул. Центральна 1",
    "coordinates": [48.10014879594596, 35.51665788100518],
    "daily": false,
    "price": 8807,
    "type": "квартира"
  },
  {
    "id": "244e53f5-46a0-4e9e-a5c9-6fe2313a59a9",
    "region": "Донецька",
    "subregion": "Волноваський",
    "settlement_name": "Новотроїцке",
    "street": "вул. Покровська 148",
    "coordinates": [47.71668965016597, 37.58307560239663],
    "daily": false,
    "price": 3310,
    "type": "склад"
  },
  {
    "id": "9c9b54b5-8c88-4574-8aa5-1aa05e29749f",
    "region": "Донецька",
    "subregion": "Торецьк",
    "settlement_name": "Торецьк",
    "street": "вул. 91-ої дивизії 1",
    "coordinates": [48.39940067049717, 37.87749310485209],
    "daily": true,
    "price": 7018,
    "type": "офіс"
  },
  {
    "id": "ad3bb76e-753d-48da-8335-7f6d7f51a5cc",
    "region": "Донецька",
    "subregion": "Краматорськ",
    "settlement_name": "Краматорськ",
    "street": "вул. Марії Приймаченко 16",
    "coordinates": [48.7344699998357, 37.60469310000312],
    "daily": false,
    "price": 8679,
    "type": "інше"
  },
  {
    "id": "913590d9-170c-44c1-a0f4-bd08fef56de8",
    "region": "Донецька",
    "subregion": "Покровськ",
    "settlement_name": "Покровськ",
    "street": "вул. Заводська 4",
    "coordinates": [48.29482877588117, 37.19257733698894],
    "daily": false,
    "price": 6801,
    "type": "офіс"
  },
  {
    "id": "3903f6df-fd55-4087-99f3-a4310cd30dac",
    "region": "Донецька",
    "subregion": "Маріуполь",
    "settlement_name": "Маріуполь",
    "street": "вул. Київська 92",
    "coordinates": [47.09713299987574, 37.54336700004256],
    "daily": true,
    "price": 6342,
    "type": "склад"
  },
  {
    "id": "b0f84a35-049a-4092-af22-b41409699ffe",
    "region": "Донецька",
    "subregion": "Бахмутський",
    "settlement_name": "Сіверськ",
    "street": "вул. Садова 40",
    "coordinates": [48.8732193869113, 38.11188705530087],
    "daily": false,
    "price": 1313,
    "type": "інше"
  },
  {
    "id": "89cc174d-ece0-468a-8f05-f08e60be4033",
    "region": "Донецька",
    "subregion": "Великоновосілківський",
    "settlement_name": "Керменчик",
    "street": "вул. Магістральна 2",
    "coordinates": [47.70916346038138, 36.94398252146111],
    "daily": false,
    "price": 2138,
    "type": "квартира"
  },
  {
    "id": "8d067b8d-3a9f-4627-a6a7-9b59e4215433",
    "region": "Донецька",
    "subregion": "Лиман",
    "settlement_name": "Крива Лука",
    "street": "вул. Центральна 33 А null",
    "coordinates": [48.87266825098869, 37.90413203123379],
    "daily": false,
    "price": 9611,
    "type": "квартира"
  },
  {
    "id": "9995a398-db90-4e03-b8b6-875ccdbbc74f",
    "region": "Донецька",
    "subregion": "Бахмутський",
    "settlement_name": "Никифорівка",
    "street": "вул. Тімірязева 45-а",
    "coordinates": [48.76807380237185, 37.90149248381124],
    "daily": false,
    "price": 3390,
    "type": "офіс"
  },
  {
    "id": "cca6bf76-586d-42a7-a755-d26f2830695c",
    "region": "Донецька",
    "subregion": "Великоновосілківський",
    "settlement_name": "Комар",
    "street": "вул. Єгорова 6",
    "coordinates": [47.97766392837499, 36.74426217481806],
    "daily": false,
    "price": 9915,
    "type": "офіс"
  },
  {
    "id": "3e478a07-e19a-46e3-a8e2-374a1ddeded3",
    "region": "Донецька",
    "subregion": "Волноваський",
    "settlement_name": "Кирилівка",
    "street": "вул. Шкільна 61",
    "coordinates": [47.32219883291446, 37.67460673002973],
    "daily": false,
    "price": 6643,
    "type": "склад"
  },
  {
    "id": "2bac0b02-54d7-444f-be82-90a3cba156ff",
    "region": "Донецька",
    "subregion": "Нікольський",
    "settlement_name": "Тополине",
    "street": "вул. Шкілька 11",
    "coordinates": [47.23288976394189, 37.39270243796402],
    "daily": false,
    "price": 5973,
    "type": "склад"
  },
  {
    "id": "36ed5e65-eaed-4c4f-9d3f-5f863fd8392c",
    "region": "Донецька",
    "subregion": "Добропільський",
    "settlement_name": "Новоторецьке",
    "street": "вул. Гагаріна 15-а",
    "coordinates": [48.39753676666584, 37.31712381433017],
    "daily": false,
    "price": 1649,
    "type": "інше"
  },
  {
    "id": "f910c6c3-f889-4d1c-84f6-8e35e62bbc2f",
    "region": "Донецька",
    "subregion": "Костянтинівський",
    "settlement_name": "Нова Полтавка",
    "street": "вул. Молодіжна 11",
    "coordinates": [48.36510517462352, 37.48840500388911],
    "daily": false,
    "price": 1565,
    "type": "склад"
  },
  {
    "id": "d85b9d47-109d-4d17-ab03-c9168cc1b42d",
    "region": "Донецька",
    "subregion": "Покровський",
    "settlement_name": "Новотроїцке",
    "street": "вул. Центральна 1",
    "coordinates": [48.19655002368643, 37.09029357400281],
    "daily": false,
    "price": 8149,
    "type": "інше"
  },
  {
    "id": "1eb6cb14-4ff9-4b61-afa7-bda0a52ac7b7",
    "region": "Донецька",
    "subregion": "Мар'їнський",
    "settlement_name": "Новоселидівка",
    "street": "вул. Артема 1",
    "coordinates": [48.05242868663669, 37.30755613477744],
    "daily": true,
    "price": 2954,
    "type": "інше"
  },
  {
    "id": "31acc405-8fc6-4a0c-9b4a-550661015d5e",
    "region": "Донецька",
    "subregion": "Олександрівський",
    "settlement_name": "Петрівка Перша",
    "street": "вул. Центральна 4",
    "coordinates": [48.70150552325349, 36.89080666817156],
    "daily": false,
    "price": 8734,
    "type": "склад"
  },
  {
    "id": "a7b52b95-25af-40a5-acb5-7a1327890057",
    "region": "Донецька",
    "subregion": "Слов'янський",
    "settlement_name": "Богородичне",
    "street": "вул. Центральна 28-а",
    "coordinates": [49.01774988626477, 37.51045407048665],
    "daily": false,
    "price": 8988,
    "type": "інше"
  },
  {
    "id": "202ed70f-4ede-467e-97cd-80ef9040eb31",
    "region": "Донецька",
    "subregion": "Ясинуватський",
    "settlement_name": "Орлівка",
    "street": "вул. Центральна 42",
    "coordinates": [48.16226880017226, 37.64465820004914],
    "daily": false,
    "price": 4287,
    "type": "склад"
  },
  {
    "id": "c195d6e7-303b-4d7e-8e0b-c6aea7836244",
    "region": "Донецька",
    "subregion": "Лиман",
    "settlement_name": "Новоселівка",
    "street": "вул. Партизанська 9",
    "coordinates": [49.07210767884407, 37.69335795178589],
    "daily": true,
    "price": 9007,
    "type": "офіс"
  },
  {
    "id": "3e8fab1d-a477-4cc3-8c4f-76992c210d93",
    "region": "Донецька",
    "subregion": "Покровський",
    "settlement_name": "Гродівка",
    "street": "вул. Донецька 106",
    "coordinates": [48.25851109982141, 37.37717419992382],
    "daily": true,
    "price": 1781,
    "type": "інше"
  },
  {
    "id": "ecb372b5-12ec-4a15-abb9-310aa6aeea7d",
    "region": "Житомирська",
    "subregion": "Житомир",
    "settlement_name": "Житомир",
    "street": "вул. Пушкінська 36",
    "coordinates": [50.24926310006254, 28.66896910000703],
    "daily": false,
    "price": 4241,
    "type": "склад"
  },
  {
    "id": "59a92d1b-7035-45f5-8a04-a9924211ec41",
    "region": "Житомирська",
    "subregion": "Радомишльський",
    "settlement_name": "Радомишль",
    "street": "вул. М.Житомирська 52",
    "coordinates": [50.48843833985154, 29.21957269139253],
    "daily": false,
    "price": 5127,
    "type": "інше"
  },
  {
    "id": "8745f13c-a196-427c-98d7-b0b7481faf1a",
    "region": "Житомирська",
    "subregion": "Житомир",
    "settlement_name": "Житомир",
    "street": "вул. Клосовського 10",
    "coordinates": [50.27603689983546, 28.63350289999688],
    "daily": true,
    "price": 6484,
    "type": "склад"
  },
  {
    "id": "fbae1896-fca2-4f67-ae1b-8c2dd97afb5f",
    "region": "Житомирська",
    "subregion": "Новоград-Волинський",
    "settlement_name": "Новоград-Волинський",
    "street": "вул. Михайла Драгоманова 74",
    "coordinates": [50.60939759903226, 27.60536810211732],
    "daily": true,
    "price": 4043,
    "type": "офіс"
  },
  {
    "id": "c2338708-43b1-4100-bf47-6646731f6cec",
    "region": "Житомирська",
    "subregion": "Андрушівський",
    "settlement_name": "Малі Мошківці",
    "street": "вул. Клубна 5",
    "coordinates": [49.96986161920741, 28.87351929211568],
    "daily": false,
    "price": 2248,
    "type": "квартира"
  },
  {
    "id": "133bc32a-551f-4485-8147-2065f6f52593",
    "region": "Житомирська",
    "subregion": "Баранівський",
    "settlement_name": "Суємці",
    "street": "вул. Дмитра Савчука 2",
    "coordinates": [50.4083477182519, 27.56909255169263],
    "daily": false,
    "price": 4078,
    "type": "склад"
  },
  {
    "id": "b8ad023b-ae39-49de-bfae-d3e24a6dab70",
    "region": "Житомирська",
    "subregion": "Бердичівський",
    "settlement_name": "Мирославка",
    "street": "вул. Шевченка 55",
    "coordinates": [49.95119478620984, 28.47029512668857],
    "daily": false,
    "price": 7598,
    "type": "офіс"
  },
  {
    "id": "eb6a4078-9f17-4666-a2bb-a730659c2d9a",
    "region": "Житомирська",
    "subregion": "Брусилівський",
    "settlement_name": "Вільшка",
    "street": "вул. Центральна 22",
    "coordinates": [50.23201326612912, 29.65057521351632],
    "daily": true,
    "price": 993,
    "type": "квартира"
  },
  {
    "id": "9fdc377b-68ce-4ee0-8a4d-99b2e41053a7",
    "region": "Житомирська",
    "subregion": "Брусилівський",
    "settlement_name": "Хомутець",
    "street": "вул. Центральна 22",
    "coordinates": [50.24870296739057, 29.59100669343219],
    "daily": false,
    "price": 5235,
    "type": "квартира"
  },
  {
    "id": "cb7bb33f-6ceb-4813-9e8c-1e9338a6a0b5",
    "region": "Житомирська",
    "subregion": "Хорошівський",
    "settlement_name": "Ягоденка",
    "street": "вул. Молодіжна 16-а",
    "coordinates": [50.71141678033512, 28.60966184102558],
    "daily": true,
    "price": 8159,
    "type": "квартира"
  },
  {
    "id": "2f58a6d4-f789-447d-86b5-3691622e7503",
    "region": "Житомирська",
    "subregion": "Ємільчинський",
    "settlement_name": "Сімаківка",
    "street": "вул. Вереси 19",
    "coordinates": [50.84972823226092, 28.05711426169273],
    "daily": true,
    "price": 7481,
    "type": "офіс"
  },
  {
    "id": "ac3f8765-a8c0-4ac5-bdf8-df87aa562d72",
    "region": "Житомирська",
    "subregion": "Житомирський",
    "settlement_name": "Довжик",
    "street": "вул. Сінна 4",
    "coordinates": [50.2969402450701, 28.58259270742631],
    "daily": false,
    "price": 5395,
    "type": "склад"
  },
  {
    "id": "32c9bc84-475a-484d-aefa-f6583ac9453f",
    "region": "Житомирська",
    "subregion": "Житомирський",
    "settlement_name": "Пряжів",
    "street": "вул. Партизанська null",
    "coordinates": [50.19021275348447, 28.68409037345929],
    "daily": true,
    "price": 8411,
    "type": "інше"
  },
  {
    "id": "9d2c63f5-99aa-4ed1-ad67-06adfa2d0186",
    "region": "Житомирська",
    "subregion": "Коростенський",
    "settlement_name": "Васьковичі",
    "street": "вул. Першотравнева 36",
    "coordinates": [51.08549961582065, 28.7082114340209],
    "daily": false,
    "price": 5653,
    "type": "квартира"
  },
  {
    "id": "a34c171b-525b-473a-9d75-ca5920aa9a35",
    "region": "Житомирська",
    "subregion": "Коростенський",
    "settlement_name": "Михайлівка",
    "street": "вул. Вишняки 23-в",
    "coordinates": [51.07315172903704, 28.66294460414334],
    "daily": false,
    "price": 4141,
    "type": "офіс"
  },
  {
    "id": "10a3a567-51ee-4a82-8d8f-8229ee0f6dd8",
    "region": "Житомирська",
    "subregion": "Коростишівський",
    "settlement_name": "Віленька",
    "street": "вул. Миру 23",
    "coordinates": [50.22764758791769, 29.27535426622082],
    "daily": false,
    "price": 5276,
    "type": "інше"
  },
  {
    "id": "5698acef-26c8-4299-bbbc-80e6adef6325",
    "region": "Житомирська",
    "subregion": "Коростишівський",
    "settlement_name": "Травневе",
    "street": "вул. Миру 2",
    "coordinates": [50.43608838697999, 29.08035137732409],
    "daily": false,
    "price": 6433,
    "type": "квартира"
  },
  {
    "id": "79e79346-2b19-47d8-b6c8-9e882bb05168",
    "region": "Житомирська",
    "subregion": "Любарський",
    "settlement_name": "Березівка",
    "street": "0 null",
    "coordinates": [49.77600912512993, 27.85256160627428],
    "daily": false,
    "price": 7018,
    "type": "склад"
  },
  {
    "id": "7997770f-a9be-4a59-9e96-1f5462a2d9de",
    "region": "Житомирська",
    "subregion": "Любарський",
    "settlement_name": "Пединки",
    "street": "0 null",
    "coordinates": [49.86154393187974, 27.68679441553986],
    "daily": false,
    "price": 3395,
    "type": "склад"
  },
  {
    "id": "048d90dd-c1f8-4d05-a170-89b3f6f0b490",
    "region": "Житомирська",
    "subregion": "Малинський",
    "settlement_name": "Лісна Колона",
    "street": "вул. Садова 3",
    "coordinates": [50.92681001098896, 29.29973238206211],
    "daily": false,
    "price": 583,
    "type": "склад"
  },
  {
    "id": "b7eca10b-a5f1-4fae-8ad2-3ac88d522d5c",
    "region": "Житомирська",
    "subregion": "Малинський",
    "settlement_name": "Щербатівка",
    "street": "вул. Дружби 80",
    "coordinates": [50.78513057602356, 29.13716100525388],
    "daily": false,
    "price": 6479,
    "type": "квартира"
  },
  {
    "id": "87c72059-9aab-4597-9e8a-cc1b274d66c7",
    "region": "Житомирська",
    "subregion": "Народицький",
    "settlement_name": "Радча",
    "street": "0 null",
    "coordinates": [51.35203786570754, 29.2815347352531],
    "daily": false,
    "price": 9115,
    "type": "офіс"
  },
  {
    "id": "a41fdcea-b848-4318-824c-60d34f1617fa",
    "region": "Житомирська",
    "subregion": "Новоград-Волинський",
    "settlement_name": "Кропивня",
    "street": "вул. Дружби 2",
    "coordinates": [50.57111244056387, 27.82329607189017],
    "daily": true,
    "price": 4124,
    "type": "інше"
  },
  {
    "id": "bba7f0aa-78c6-4093-975a-fd05f3d3a49b",
    "region": "Житомирська",
    "subregion": "Новоград-Волинський",
    "settlement_name": "Сусли",
    "street": "вул. Аки Камбарова 2-б",
    "coordinates": [50.55537816799547, 27.60888002149965],
    "daily": false,
    "price": 975,
    "type": "інше"
  },
  {
    "id": "20cc0500-15df-4bf6-a88f-9ab88184e48e",
    "region": "Житомирська",
    "subregion": "Овруцький",
    "settlement_name": "Велика Чернігівка",
    "street": "вул. Київська 16",
    "coordinates": [51.28410549822554, 28.91914463850913],
    "daily": false,
    "price": 761,
    "type": "склад"
  },
  {
    "id": "6bf854d0-8880-4300-87d4-c05c29775a9f",
    "region": "Житомирська",
    "subregion": "Овруцький",
    "settlement_name": "Острів",
    "street": "вул. Залізнична 20",
    "coordinates": [51.29234654221782, 28.7992838793805],
    "daily": false,
    "price": 2666,
    "type": "офіс"
  },
  {
    "id": "8f9ba524-1f6b-4003-88d1-58eeece81988",
    "region": "Житомирська",
    "subregion": "Овруцький",
    "settlement_name": "Черевки",
    "street": "вул. Центральна 42",
    "coordinates": [51.31761871297017, 28.41252993079759],
    "daily": false,
    "price": 9612,
    "type": "квартира"
  },
  {
    "id": "bd6b06e3-3372-4ee1-b8fc-24d5228d44c6",
    "region": "Житомирська",
    "subregion": "Олевський",
    "settlement_name": "Копище",
    "street": "вул. Партизанська 50-б",
    "coordinates": [51.58868651567003, 27.85424123487793],
    "daily": false,
    "price": 6718,
    "type": "квартира"
  },
  {
    "id": "97e63a5e-9926-4015-a6da-1d8707431c17",
    "region": "Житомирська",
    "subregion": "Попільнянський",
    "settlement_name": "Єрчики",
    "street": "вул. Шевченка 18",
    "coordinates": [49.99278741001999, 29.58146484847478],
    "daily": false,
    "price": 8930,
    "type": "інше"
  },
  {
    "id": "8cf64181-592f-4e7f-a996-2d2aef15e24a",
    "region": "Житомирська",
    "subregion": "Радомишльський",
    "settlement_name": "Борщів",
    "street": "вул. Центральна 20",
    "coordinates": [50.51285600739412, 29.11383918973145],
    "daily": true,
    "price": 4986,
    "type": "квартира"
  },
  {
    "id": "8e3572ef-76f8-43a5-882f-ce4b63bfc382",
    "region": "Житомирська",
    "subregion": "Радомишльський",
    "settlement_name": "Межирічка",
    "street": "вул. Космонавтів 26",
    "coordinates": [50.5974427548184, 29.37762504312232],
    "daily": false,
    "price": 5966,
    "type": "офіс"
  },
  {
    "id": "4f0cc561-0cef-49bf-9052-8969a7906519",
    "region": "Житомирська",
    "subregion": "Романівський",
    "settlement_name": "Карвинівка",
    "street": "вул. Шевченка 18",
    "coordinates": [50.14376212193469, 28.19567629663677],
    "daily": true,
    "price": 9930,
    "type": "інше"
  },
  {
    "id": "8f0bca5a-0c8e-4b0a-b716-69474a84a2f7",
    "region": "Житомирська",
    "subregion": "Ружинський",
    "settlement_name": "Вчорайше",
    "street": "вул. Шкільна 55",
    "coordinates": [49.86450071096793, 29.13945623142684],
    "daily": false,
    "price": 1473,
    "type": "склад"
  },
  {
    "id": "40836bf8-7814-4543-b112-bb134e5faa21",
    "region": "Житомирська",
    "subregion": "Ружинський",
    "settlement_name": "Роставиця",
    "street": "вул. 40-річчя Перемоги 49",
    "coordinates": [49.76517458541004, 29.12259574718493],
    "daily": false,
    "price": 9183,
    "type": "офіс"
  },
  {
    "id": "a8c8152a-0930-46a6-ad38-b4a901d7ea50",
    "region": "Житомирська",
    "subregion": "Пулинський",
    "settlement_name": "Тетірка",
    "street": "вул. Гагаріна 25",
    "coordinates": [50.46687966703303, 27.98456801458827],
    "daily": true,
    "price": 2046,
    "type": "офіс"
  },
  {
    "id": "cb7c8b89-dc69-45db-81c6-d73b37764ff8",
    "region": "Житомирська",
    "subregion": "Черняхівський",
    "settlement_name": "Новосілки",
    "street": "вул. Мирона Верещака 1",
    "coordinates": [50.46589426374412, 28.63561320953244],
    "daily": false,
    "price": 4132,
    "type": "інше"
  },
  {
    "id": "ed1d9a21-4d44-4619-b3a0-f86150ee28cf",
    "region": "Житомирська",
    "subregion": "Чуднівський",
    "settlement_name": "Волосівка",
    "street": "вул. Набережна 2",
    "coordinates": [49.99647268891421, 28.11302391535208],
    "daily": true,
    "price": 7875,
    "type": "квартира"
  },
  {
    "id": "035dd4f1-4b7d-45e9-93dd-cb114ee7fdc8",
    "region": "Житомирська",
    "subregion": "Баранівський",
    "settlement_name": "Кам'яний Брід",
    "street": "вул. Лесі Українки 22",
    "coordinates": [50.41589772464989, 27.83810163579441],
    "daily": false,
    "price": 7109,
    "type": "квартира"
  },
  {
    "id": "d2972612-0ecb-4ddd-b438-41c928d808a8",
    "region": "Житомирська",
    "subregion": "Малинський",
    "settlement_name": "Гранітне",
    "street": "вул. Шевченка 15",
    "coordinates": [50.74809891385308, 29.34415950665755],
    "daily": true,
    "price": 2957,
    "type": "квартира"
  },
  {
    "id": "b5385b13-9cb9-4fa8-9007-60237ee704e6",
    "region": "Житомирська",
    "subregion": "Романівський",
    "settlement_name": "Миропіль",
    "street": "вул. Вільшанська 24",
    "coordinates": [50.10979380083207, 27.697225312711],
    "daily": true,
    "price": 7305,
    "type": "офіс"
  },
  {
    "id": "fbee47c5-12d0-46e6-bad4-424d9fe25cb5",
    "region": "Закарпатська",
    "subregion": "Виноградівський",
    "settlement_name": "Виноградів",
    "street": "вул. Шевченка 6",
    "coordinates": [48.1410336445544, 23.03343659269845],
    "daily": false,
    "price": 7896,
    "type": "квартира"
  },
  {
    "id": "ba85f29a-4e53-45c6-aa65-dfcacccb9052",
    "region": "Закарпатська",
    "subregion": "Ужгород",
    "settlement_name": "Ужгород",
    "street": "вул. Дендеші 160",
    "coordinates": [48.60395599964335, 22.32975219527993],
    "daily": true,
    "price": 3471,
    "type": "квартира"
  },
  {
    "id": "cc282fac-47b2-48d3-a585-e9cb10963ef9",
    "region": "Закарпатська",
    "subregion": "Берегівський",
    "settlement_name": "Чома",
    "street": "вул. Ш. Петефі 49",
    "coordinates": [48.13504657373559, 22.63449551353863],
    "daily": false,
    "price": 2037,
    "type": "квартира"
  },
  {
    "id": "49805054-c256-45cc-8759-435e58fb18b2",
    "region": "Закарпатська",
    "subregion": "Великоберезнянський",
    "settlement_name": "Бегендят Пастіль",
    "street": "0.0 54",
    "coordinates": [48.86284945360227, 22.50915207089775],
    "daily": false,
    "price": 7002,
    "type": "офіс"
  },
  {
    "id": "b912358e-b454-44c6-a116-bbdb299ed5ca",
    "region": "Закарпатська",
    "subregion": "Великоберезнянський",
    "settlement_name": "Руська Мочар",
    "street": "0.0 34",
    "coordinates": [48.89880863286771, 22.52788693134413],
    "daily": true,
    "price": 6623,
    "type": "офіс"
  },
  {
    "id": "3c0b8f39-16a3-4c97-a33e-082dcf5ff400",
    "region": "Закарпатська",
    "subregion": "Виноградівський",
    "settlement_name": "Гетиня",
    "street": "вул. Головна 25",
    "coordinates": [48.08442490872481, 23.01788717754443],
    "daily": false,
    "price": 528,
    "type": "офіс"
  },
  {
    "id": "b13a7e6b-fc9e-4768-b7ac-395e385daa1e",
    "region": "Закарпатська",
    "subregion": "Виноградівський",
    "settlement_name": "Чорнотисів",
    "street": "вул. Шевченка 3",
    "coordinates": [48.07596622528849, 23.05544373553487],
    "daily": true,
    "price": 7613,
    "type": "інше"
  },
  {
    "id": "ce1ef0c9-3128-4000-95cb-125fb7ec9650",
    "region": "Закарпатська",
    "subregion": "Іршавський",
    "settlement_name": "Брід",
    "street": "вул. Центральна 75",
    "coordinates": [48.34953420363062, 23.00425084170098],
    "daily": false,
    "price": 8329,
    "type": "офіс"
  },
  {
    "id": "f7d1a85c-a291-4789-a4b3-000d3f5c9a24",
    "region": "Закарпатська",
    "subregion": "Іршавський",
    "settlement_name": "Нижнє Болотне",
    "street": "вул. Українська 26",
    "coordinates": [48.26663369742045, 23.09825716668441],
    "daily": false,
    "price": 3204,
    "type": "офіс"
  },
  {
    "id": "686c39c2-66ed-4dd9-8fad-a23cf8f5b13c",
    "region": "Закарпатська",
    "subregion": "Міжгірський",
    "settlement_name": "Лісковець",
    "street": "0.0 12",
    "coordinates": [48.69678413742525, 23.43268993858106],
    "daily": false,
    "price": 515,
    "type": "квартира"
  },
  {
    "id": "0526f3f0-c512-403b-84e2-1de040b6ca63",
    "region": "Закарпатська",
    "subregion": "Мукачівський",
    "settlement_name": "Бабичі",
    "street": "вул. Покутянська 100",
    "coordinates": [48.44647465210292, 22.90342754013099],
    "daily": false,
    "price": 6426,
    "type": "квартира"
  },
  {
    "id": "bfd762f1-cb77-4d35-944c-2cb11adbdcb9",
    "region": "Закарпатська",
    "subregion": "Мукачівський",
    "settlement_name": "Кайданово",
    "street": "вул. Набережна 61",
    "coordinates": [48.47221435747394, 22.58147095940162],
    "daily": false,
    "price": 6760,
    "type": "інше"
  },
  {
    "id": "efe14372-7211-4a9c-abc6-a76b3e68481a",
    "region": "Закарпатська",
    "subregion": "Мукачівський",
    "settlement_name": "Нижній Коропець",
    "street": "вул. Миру 49",
    "coordinates": [48.36082937790369, 22.66318723708464],
    "daily": true,
    "price": 980,
    "type": "квартира"
  },
  {
    "id": "e58fcd95-a3bc-4f51-ad9a-1c2451c312c5",
    "region": "Закарпатська",
    "subregion": "Перечинський",
    "settlement_name": "Мокра",
    "street": "0.0 60",
    "coordinates": [48.70098288577091, 22.71261848690451],
    "daily": false,
    "price": 9776,
    "type": "інше"
  },
  {
    "id": "8c76136b-e8ee-4a3e-b610-ba2ff6ad5121",
    "region": "Закарпатська",
    "subregion": "Рахівський",
    "settlement_name": "Видричка",
    "street": "вул. Л.Українки 166",
    "coordinates": [48.05139313547047, 24.31801563918827],
    "daily": false,
    "price": 4035,
    "type": "квартира"
  },
  {
    "id": "e57bb871-ea71-41d1-993a-e4e9634ea597",
    "region": "Закарпатська",
    "subregion": "Рахівський",
    "settlement_name": "Хмелів",
    "street": "вул. 40-чя Перемоги 4",
    "coordinates": [47.91602307224948, 24.14543043667685],
    "daily": false,
    "price": 6291,
    "type": "склад"
  },
  {
    "id": "12673397-5363-4bbd-a62d-8404e21efcef",
    "region": "Закарпатська",
    "subregion": "Свалявський",
    "settlement_name": "Родниківка",
    "street": "0.0 45",
    "coordinates": [48.69747360559525, 22.89471200683884],
    "daily": true,
    "price": 2296,
    "type": "склад"
  },
  {
    "id": "1ec4027f-42ba-41d9-b2a0-1e6bde0dd9af",
    "region": "Закарпатська",
    "subregion": "Тячівський",
    "settlement_name": "Красна",
    "street": "вул. Миру 203",
    "coordinates": [48.22146867143149, 23.92797698651297],
    "daily": true,
    "price": 5162,
    "type": "квартира"
  },
  {
    "id": "833fe787-6699-412b-b6df-1940b6f3ff1b",
    "region": "Закарпатська",
    "subregion": "Тячівський",
    "settlement_name": "Вишоватий",
    "street": "вул. Партизанська 69-а",
    "coordinates": [48.08783078454189, 23.74758922607862],
    "daily": true,
    "price": 1613,
    "type": "склад"
  },
  {
    "id": "eeb26617-1687-4133-8690-ee2a8372c964",
    "region": "Закарпатська",
    "subregion": "Ужгородський",
    "settlement_name": "Оноківці",
    "street": "вул. Головна 106",
    "coordinates": [48.65218280420122, 22.34276595880009],
    "daily": false,
    "price": 3444,
    "type": "офіс"
  },
  {
    "id": "f24bc2c0-0a28-4953-a9f2-4ad35693e8bd",
    "region": "Закарпатська",
    "subregion": "Ужгородський",
    "settlement_name": "Холмок",
    "street": "вул. Свободи 50",
    "coordinates": [48.56184103176066, 22.2685963639997],
    "daily": false,
    "price": 9586,
    "type": "офіс"
  },
  {
    "id": "b7a4d44c-af31-4e13-bfd5-b8efe2ae40db",
    "region": "Закарпатська",
    "subregion": "Хустський",
    "settlement_name": "Хустець",
    "street": "вул. Хустецька 85",
    "coordinates": [48.24517662461324, 23.48934082899505],
    "daily": true,
    "price": 1445,
    "type": "офіс"
  },
  {
    "id": "4695a9f2-2a95-4dde-8a06-39b295466d2f",
    "region": "Закарпатська",
    "subregion": "Великоберезнянський",
    "settlement_name": "Великий Березний",
    "street": "вул. Шевченка 2",
    "coordinates": [48.9008763957331, 22.45842166680132],
    "daily": false,
    "price": 3449,
    "type": "інше"
  },
  {
    "id": "cfba8a4f-d1e0-42ed-be64-2609e19490f8",
    "region": "Закарпатська",
    "subregion": "Тячівський",
    "settlement_name": "Буштино",
    "street": "вул. Головна 91",
    "coordinates": [48.04734131681013, 23.48663744939874],
    "daily": false,
    "price": 6113,
    "type": "офіс"
  },
  {
    "id": "62a63984-1084-4926-b412-62542e5664da",
    "region": "Запорізька",
    "subregion": "Запоріжжя",
    "settlement_name": "Запоріжжя",
    "street": "вул. Мурманська 3",
    "coordinates": [47.88160250027415, 35.0764480999799],
    "daily": true,
    "price": 5135,
    "type": "склад"
  },
  {
    "id": "b1eaa083-c8db-44d5-a88a-57ae42234583",
    "region": "Запорізька",
    "subregion": "Запоріжжя",
    "settlement_name": "Запоріжжя",
    "street": "вул. Патріотична 58-б",
    "coordinates": [47.83704721507714, 35.13557597009987],
    "daily": true,
    "price": 9744,
    "type": "інше"
  },
  {
    "id": "5aab8e04-4adf-4dc3-b6f1-83f53ad227e3",
    "region": "Запорізька",
    "subregion": "Енергодар",
    "settlement_name": "Енергодар",
    "street": "вул. Молодіжна 105",
    "coordinates": [47.48097280021462, 34.65438559994545],
    "daily": false,
    "price": 5663,
    "type": "склад"
  },
  {
    "id": "d04f7a2d-f800-465d-9b02-ed1bc8d16808",
    "region": "Запорізька",
    "subregion": "Гуляйпільський",
    "settlement_name": "Гуляйполе",
    "street": "вул. Велика 337",
    "coordinates": [47.65228784562355, 36.30177770935829],
    "daily": true,
    "price": 3378,
    "type": "квартира"
  },
  {
    "id": "09c3ca25-c37b-4973-bc2a-75884bbc6ef5",
    "region": "Запорізька",
    "subregion": "Бердянський",
    "settlement_name": "Новотроїцьке",
    "street": "вул. Локтіонова 48",
    "coordinates": [46.95882496053299, 36.65710947269312],
    "daily": false,
    "price": 2076,
    "type": "склад"
  },
  {
    "id": "395bfdc1-18dd-4443-96d3-51c67d94669e",
    "region": "Запорізька",
    "subregion": "Василівський",
    "settlement_name": "Приморське",
    "street": "вул. Весела 68",
    "coordinates": [47.63927064790176, 35.282770452233],
    "daily": false,
    "price": 6079,
    "type": "склад"
  },
  {
    "id": "f7d57ab1-4293-4460-a85b-92ab7a269445",
    "region": "Запорізька",
    "subregion": "Веселівський",
    "settlement_name": "Новоолександрівка",
    "street": "вул. Б. Хмельницького 25",
    "coordinates": [47.10510948648479, 34.91224908599733],
    "daily": false,
    "price": 4974,
    "type": "інше"
  },
  {
    "id": "439e3d92-8a21-4628-90ba-bf83ecb382bf",
    "region": "Запорізька",
    "subregion": "Вільнянський",
    "settlement_name": "Соколівка",
    "street": "вул. Першотравнева 41",
    "coordinates": [47.99488586649115, 35.2279924744799],
    "daily": true,
    "price": 7757,
    "type": "офіс"
  },
  {
    "id": "76840b0a-217c-45ac-8528-438e471fe016",
    "region": "Запорізька",
    "subregion": "Гуляйпільський",
    "settlement_name": "Темирівка",
    "street": "вул. Миру 48-в",
    "coordinates": [47.82218579916521, 36.57257541518249],
    "daily": false,
    "price": 5581,
    "type": "інше"
  },
  {
    "id": "0bc5b20f-fd8e-4af3-b152-712dc558651e",
    "region": "Запорізька",
    "subregion": "Запорізький",
    "settlement_name": "Нижня Хортиця",
    "street": "вул. Центральна 19-а",
    "coordinates": [47.77096825289345, 35.12928718113566],
    "daily": false,
    "price": 8349,
    "type": "інше"
  },
  {
    "id": "3a79e145-75bf-415a-8714-2c2ad0e47a83",
    "region": "Запорізька",
    "subregion": "Більмацький",
    "settlement_name": "Білоцерківка",
    "street": "вул. Петра Ребра 22",
    "coordinates": [47.2402058418767, 36.81224780006367],
    "daily": false,
    "price": 9719,
    "type": "інше"
  },
  {
    "id": "4b88c249-41b7-45e8-b820-24ccec35c778",
    "region": "Запорізька",
    "subregion": "Мелітопольський",
    "settlement_name": "Долинське",
    "street": "вул. Широка 346",
    "coordinates": [46.78599164103407, 35.20842737201031],
    "daily": false,
    "price": 7773,
    "type": "інше"
  },
  {
    "id": "81a3e384-32ab-4e9d-b079-7543f3525383",
    "region": "Запорізька",
    "subregion": "Мелітопольський",
    "settlement_name": "Терпіння",
    "street": "вул. Сізова 43",
    "coordinates": [46.96839203870388, 35.409298898619],
    "daily": false,
    "price": 9935,
    "type": "склад"
  },
  {
    "id": "f3bb50fa-8e9c-466c-83cd-583ad6095b91",
    "region": "Запорізька",
    "subregion": "Новомиколаївський",
    "settlement_name": "Листівка",
    "street": "буд. 52 null",
    "coordinates": [47.84998426996563, 35.7623576912077],
    "daily": true,
    "price": 5224,
    "type": "квартира"
  },
  {
    "id": "1ad63cd0-119c-4259-a90e-f3735cb18539",
    "region": "Запорізька",
    "subregion": "Оріхівський",
    "settlement_name": "Новоандріївка",
    "street": "вул. Вишнева 39",
    "coordinates": [47.54891092683125, 35.70059411492807],
    "daily": true,
    "price": 6660,
    "type": "квартира"
  },
  {
    "id": "7798486b-ef34-4d0a-bb45-362a744c347d",
    "region": "Запорізька",
    "subregion": "Пологівський",
    "settlement_name": "Новоселівка",
    "street": "вул. Гагаріна 70",
    "coordinates": [47.5863957070896, 36.43085424352618],
    "daily": false,
    "price": 8860,
    "type": "склад"
  },
  {
    "id": "7871824f-fc41-45f9-bc3a-b325749ebe1b",
    "region": "Запорізька",
    "subregion": "Приазовський",
    "settlement_name": "Дунаївка",
    "street": "вул. Шкільна 35",
    "coordinates": [46.57125111292861, 35.42178358104784],
    "daily": false,
    "price": 9221,
    "type": "склад"
  },
  {
    "id": "131295f9-a074-402f-bfe5-b0179257cb04",
    "region": "Запорізька",
    "subregion": "Приморський",
    "settlement_name": "Єлизаветівка",
    "street": "вул. Шкільна 17",
    "coordinates": [46.94672777490681, 36.40256393523939],
    "daily": false,
    "price": 9978,
    "type": "інше"
  },
  {
    "id": "d8ec36ab-4013-4f8c-91d1-c91e92a48c38",
    "region": "Запорізька",
    "subregion": "Розівський",
    "settlement_name": "Зоря",
    "street": "вул. Миру 41",
    "coordinates": [47.52572804971444, 36.94310378437835],
    "daily": false,
    "price": 8415,
    "type": "квартира"
  },
  {
    "id": "ebf3ae9f-f0af-4e0c-b0f6-104e2d220cfa",
    "region": "Запорізька",
    "subregion": "Токмацький",
    "settlement_name": "Очеретувате",
    "street": "вул. Центральна 110-а",
    "coordinates": [47.33512628377822, 35.94115428272915],
    "daily": true,
    "price": 5312,
    "type": "квартира"
  },
  {
    "id": "cf64dc83-32f9-43df-980b-b08793756cdd",
    "region": "Запорізька",
    "subregion": "Чернігівський",
    "settlement_name": "Просторе",
    "street": "вул. Супетенка 15",
    "coordinates": [47.08813017108152, 36.21108994251558],
    "daily": true,
    "price": 4477,
    "type": "склад"
  },
  {
    "id": "8d86dc66-3afc-4ca2-ba10-cd39421baa67",
    "region": "Запорізька",
    "subregion": "Якимівський",
    "settlement_name": "Чорноземне",
    "street": "вул. Шкільна 11",
    "coordinates": [46.78748933226689, 34.82933844838215],
    "daily": false,
    "price": 3450,
    "type": "офіс"
  },
  {
    "id": "9df103e8-5ea1-4f71-99dd-f7afd4623843",
    "region": "Запорізька",
    "subregion": "Більмацький",
    "settlement_name": "Більмак",
    "street": "вул. Центральна 57",
    "coordinates": [47.36074235792455, 36.64999226055388],
    "daily": false,
    "price": 4723,
    "type": "склад"
  },
  {
    "id": "eed73769-cef6-45a9-969b-60d9c627cb04",
    "region": "Запорізька",
    "subregion": "Чернігівський",
    "settlement_name": "Чернігівка",
    "street": "вул. Соборна 180",
    "coordinates": [47.20308161131291, 36.16755863832639],
    "daily": false,
    "price": 2043,
    "type": "офіс"
  },
  {
    "id": "463c85db-28d0-44a5-84c0-79d1c66b6158",
    "region": "Івано-Франківська",
    "subregion": "Болехів",
    "settlement_name": "Болехів",
    "street": "вул. Січових Стрільців 9",
    "coordinates": [49.06842612114987, 23.8544672034253],
    "daily": true,
    "price": 1105,
    "type": "інше"
  },
  {
    "id": "3be864d6-709c-4b81-9662-3f1fa7f58388",
    "region": "Івано-Франківська",
    "subregion": "Коломия",
    "settlement_name": "Коломия",
    "street": "вул. Лесі Українки 7",
    "coordinates": [48.52962839758842, 25.04188605040525],
    "daily": false,
    "price": 9213,
    "type": "інше"
  },
  {
    "id": "ee346f95-f6c7-410a-850b-7299a2af39ea",
    "region": "Івано-Франківська",
    "subregion": "Тисменицький",
    "settlement_name": "Тисмениця",
    "street": "вул. Галицька 32",
    "coordinates": [48.90438692126957, 24.84008827104761],
    "daily": false,
    "price": 1319,
    "type": "квартира"
  },
  {
    "id": "cde2dd88-0e0c-43ea-9661-d776f65d5c2b",
    "region": "Івано-Франківська",
    "subregion": "Богородчанський",
    "settlement_name": "Гринівка",
    "street": "вул. Яцківа 116-а",
    "coordinates": [48.85824838812309, 24.4668649353567],
    "daily": false,
    "price": 4089,
    "type": "склад"
  },
  {
    "id": "b557aa66-aa70-4bb9-9330-cb97bbef5bcb",
    "region": "Івано-Франківська",
    "subregion": "Богородчанський",
    "settlement_name": "Раковець",
    "street": "вул. Шевченка 68",
    "coordinates": [48.71039022377149, 24.37791407324333],
    "daily": true,
    "price": 7782,
    "type": "офіс"
  },
  {
    "id": "50626c97-052d-481b-8d03-771e27b2355f",
    "region": "Івано-Франківська",
    "subregion": "Верховинський",
    "settlement_name": "Бистрець",
    "street": "0.0 null",
    "coordinates": [48.12536375271456, 24.66943009924349],
    "daily": true,
    "price": 4461,
    "type": "квартира"
  },
  {
    "id": "2037cb0f-eee8-4253-8a62-126cc347a496",
    "region": "Івано-Франківська",
    "subregion": "Верховинський",
    "settlement_name": "Рівня",
    "street": "0.0 null",
    "coordinates": [48.1361563349829, 24.95735205407809],
    "daily": false,
    "price": 8204,
    "type": "інше"
  },
  {
    "id": "9c377f7d-c6ed-453d-92d0-0c896055eb70",
    "region": "Івано-Франківська",
    "subregion": "Галицький",
    "settlement_name": "Водники",
    "street": "вул. Галицька 34",
    "coordinates": [49.07687996410502, 24.80944426444507],
    "daily": true,
    "price": 7889,
    "type": "інше"
  },
  {
    "id": "6b60143a-6492-4e2d-9cfd-099b4001334e",
    "region": "Івано-Франківська",
    "subregion": "Галицький",
    "settlement_name": "Насташино",
    "street": "вул. Я .Осмомисла 11",
    "coordinates": [49.30014397268536, 24.60404652563778],
    "daily": true,
    "price": 4917,
    "type": "квартира"
  },
  {
    "id": "312c40aa-a3b0-4fdc-8e20-11a843bf407f",
    "region": "Івано-Франківська",
    "subregion": "Городенківський",
    "settlement_name": "Колінки",
    "street": "вул. Стефаника 7",
    "coordinates": [48.79064345330944, 25.49716934031977],
    "daily": false,
    "price": 8445,
    "type": "квартира"
  },
  {
    "id": "bbf591b5-c3ab-4f25-9e7f-b0560c5bb14a",
    "region": "Івано-Франківська",
    "subregion": "Городенківський",
    "settlement_name": "Семенівка",
    "street": "вул. Галицька 50",
    "coordinates": [48.77572473165502, 25.31507306856563],
    "daily": false,
    "price": 6227,
    "type": "інше"
  },
  {
    "id": "d9056522-4c2d-45dd-9ccc-ca71fa172b06",
    "region": "Івано-Франківська",
    "subregion": "Долинський",
    "settlement_name": "Кальна",
    "street": "вул.Шевченка 134",
    "coordinates": [48.96268472534716, 23.80592970481485],
    "daily": false,
    "price": 5457,
    "type": "інше"
  },
  {
    "id": "a7b67cbd-4239-46c7-b397-0098e9a2ef05",
    "region": "Івано-Франківська",
    "subregion": "Долинський",
    "settlement_name": "Станківці",
    "street": "вул. В. Дорошенка 37",
    "coordinates": [48.9984100115208, 23.80022322800459],
    "daily": false,
    "price": 5744,
    "type": "квартира"
  },
  {
    "id": "8ebdc97e-bca9-4ef0-869c-5eed5c71b69b",
    "region": "Івано-Франківська",
    "subregion": "Калуський",
    "settlement_name": "Довге-Калуське",
    "street": "вул. Шевченка null",
    "coordinates": [48.98936220086667, 24.29915478549238],
    "daily": true,
    "price": 5522,
    "type": "офіс"
  },
  {
    "id": "bccde42c-ff5a-4e5e-a89d-de47517c457e",
    "region": "Івано-Франківська",
    "subregion": "Калуський",
    "settlement_name": "Пійло",
    "street": "вул. Грушевського 106",
    "coordinates": [49.00551846579697, 24.30840237874312],
    "daily": false,
    "price": 1813,
    "type": "офіс"
  },
  {
    "id": "c6571ceb-02e8-472f-a4cb-442850b6b69d",
    "region": "Івано-Франківська",
    "subregion": "Коломийський",
    "settlement_name": "Великий Ключів",
    "street": "вул. Відродження 8",
    "coordinates": [48.4606419366995, 24.93567517915042],
    "daily": true,
    "price": 4648,
    "type": "інше"
  },
  {
    "id": "d74a8d23-e24b-4664-a3a4-f99283355839",
    "region": "Івано-Франківська",
    "subregion": "Коломийський",
    "settlement_name": "Кийданці",
    "street": "вул. Шевченка 1",
    "coordinates": [48.54104568214588, 24.97535394127014],
    "daily": false,
    "price": 8139,
    "type": "квартира"
  },
  {
    "id": "edb27fe8-52d1-443c-b96f-12121a3ba9da",
    "region": "Івано-Франківська",
    "subregion": "Коломийський",
    "settlement_name": "Остапківці",
    "street": "вул. Франка 60",
    "coordinates": [48.59035202867824, 25.28203101402792],
    "daily": false,
    "price": 8679,
    "type": "квартира"
  },
  {
    "id": "f41d127d-4da1-4a77-8581-22798edbf47a",
    "region": "Івано-Франківська",
    "subregion": "Коломийський",
    "settlement_name": "Угорники",
    "street": "вул. Шевченка 34",
    "coordinates": [48.7238304260672, 24.84906971048637],
    "daily": false,
    "price": 2488,
    "type": "склад"
  },
  {
    "id": "64444bcb-7bcc-4803-aa5f-5d022f1e93a9",
    "region": "Івано-Франківська",
    "subregion": "Косівський",
    "settlement_name": "Малий Рожин",
    "street": "вул. Головна 1",
    "coordinates": [48.24904827674727, 25.10550786323387],
    "daily": false,
    "price": 1729,
    "type": "інше"
  },
  {
    "id": "8d0323b7-85d0-4826-b66f-02d57a01fbcd",
    "region": "Івано-Франківська",
    "subregion": "Косівський",
    "settlement_name": "Тюдів",
    "street": "вул. Шевченка 183",
    "coordinates": [48.24012342897684, 25.12883304320572],
    "daily": true,
    "price": 6050,
    "type": "склад"
  },
  {
    "id": "17d0d1a6-21a3-429b-b258-4e8bd768702b",
    "region": "Івано-Франківська",
    "subregion": "Надвірнянський",
    "settlement_name": "Черник",
    "street": "Центр 16",
    "coordinates": [48.49452659636862, 24.35406032483772],
    "daily": false,
    "price": 7023,
    "type": "квартира"
  },
  {
    "id": "0fa4f719-8f26-46b4-bc33-52e3c5c1cb45",
    "region": "Івано-Франківська",
    "subregion": "Надвірнянський",
    "settlement_name": "Чорний Потік",
    "street": "вул. Б. Хмельницького 388-а",
    "coordinates": [48.49912783083931, 24.73377170827612],
    "daily": false,
    "price": 9239,
    "type": "квартира"
  },
  {
    "id": "65025af7-ae72-4aff-9239-b547e454479e",
    "region": "Івано-Франківська",
    "subregion": "Рогатинський",
    "settlement_name": "Колоколин",
    "street": "вул. Миру 55",
    "coordinates": [49.2974586693862, 24.49859260028477],
    "daily": false,
    "price": 8710,
    "type": "інше"
  },
  {
    "id": "93f2f169-a8a6-4079-aa10-d43016744550",
    "region": "Івано-Франківська",
    "subregion": "Рогатинський",
    "settlement_name": "Фрага",
    "street": "вул. Миру 4-а",
    "coordinates": [49.47136888012449, 24.44058047956243],
    "daily": false,
    "price": 5134,
    "type": "склад"
  },
  {
    "id": "f5428fed-6500-4c12-8e0a-b6a68cfd51f2",
    "region": "Івано-Франківська",
    "subregion": "Рожнятівський",
    "settlement_name": "Закретичне",
    "street": "вул. Шевченка 32-а",
    "coordinates": [48.767157278113, 24.18348232370879],
    "daily": false,
    "price": 8361,
    "type": "інше"
  },
  {
    "id": "f0c93f3b-e679-4ed4-b5b4-25549fa31832",
    "region": "Івано-Франківська",
    "subregion": "Рожнятівський",
    "settlement_name": "Слобода Рівнянська",
    "street": "вул. Січових Стрільців 21-а",
    "coordinates": [48.89044276494255, 24.21747630018444],
    "daily": false,
    "price": 4138,
    "type": "склад"
  },
  {
    "id": "35770b5d-21ba-427e-af8d-1c21a22dabd4",
    "region": "Івано-Франківська",
    "subregion": "Снятинський",
    "settlement_name": "Залуччя-Долішнє",
    "street": "вул. Шевченка 1",
    "coordinates": [48.40516798391734, 25.51909839468106],
    "daily": true,
    "price": 6829,
    "type": "інше"
  },
  {
    "id": "b575c240-1b32-46d2-97ae-4a70be6b50fa",
    "region": "Івано-Франківська",
    "subregion": "Снятинський",
    "settlement_name": "Стецівка",
    "street": "вул. Шевченка 21-а null",
    "coordinates": [48.56058641933254, 25.55419333773394],
    "daily": false,
    "price": 1195,
    "type": "офіс"
  },
  {
    "id": "cb5bd670-85fe-4ca0-8e81-6bc034d5907a",
    "region": "Івано-Франківська",
    "subregion": "Тисменицький",
    "settlement_name": "Загвіздя",
    "street": "вул. Липова 22",
    "coordinates": [48.92471297143781, 24.65648752030529],
    "daily": true,
    "price": 7715,
    "type": "інше"
  },
  {
    "id": "b70e66a5-917a-4e31-b121-3db877aa4966",
    "region": "Івано-Франківська",
    "subregion": "Тисменицький",
    "settlement_name": "Рошнів",
    "street": "вул. Гостинець 27",
    "coordinates": [48.98314186788544, 24.90531887576714],
    "daily": false,
    "price": 7426,
    "type": "склад"
  },
  {
    "id": "7f1f5145-99e2-4c44-9d03-ee20fad65ca1",
    "region": "Івано-Франківська",
    "subregion": "Тлумацький",
    "settlement_name": "Буківна",
    "street": "вул. Шевченка 41-а",
    "coordinates": [48.96888452062474, 24.96877878985428],
    "daily": false,
    "price": 5546,
    "type": "офіс"
  },
  {
    "id": "85392323-4131-41ce-95f6-1af9b1f0c2b0",
    "region": "Івано-Франківська",
    "subregion": "Тлумацький",
    "settlement_name": "Надорожна",
    "street": "вул. Гостинець 39-а",
    "coordinates": [48.88460037466126, 24.9485231111966],
    "daily": false,
    "price": 9818,
    "type": "склад"
  },
  {
    "id": "f48dfdb8-dac8-4578-b145-bbba1325fed6",
    "region": "Івано-Франківська",
    "subregion": "Тлумацький",
    "settlement_name": "Яківка",
    "street": "вул. Центральна 13",
    "coordinates": [48.66426414875819, 25.17129693565624],
    "daily": false,
    "price": 2080,
    "type": "офіс"
  },
  {
    "id": "b10f1221-74d7-431b-a333-b1c1708002c6",
    "region": "Івано-Франківська",
    "subregion": "Калуський",
    "settlement_name": "Войнилів",
    "street": "вул.Шевченка 127",
    "coordinates": [49.12591255147029, 24.49048463234487],
    "daily": false,
    "price": 4138,
    "type": "офіс"
  },
  {
    "id": "e06e5bb9-f0d0-40b4-ba4c-180d57c41115",
    "region": "Івано-Франківська",
    "subregion": "Рожнятівський",
    "settlement_name": "Перегінськ",
    "street": "вул. Сагайдачного 3",
    "coordinates": [48.81121593448047, 24.19319267189446],
    "daily": false,
    "price": 2502,
    "type": "квартира"
  },
  {
    "id": "cb01c788-a327-4d69-8d0f-828f0e47d250",
    "region": "Київська",
    "subregion": "Васильківський",
    "settlement_name": "Васильків",
    "street": "вул. Володимирська 2",
    "coordinates": [50.17504399993637, 30.31769300002538],
    "daily": false,
    "price": 9463,
    "type": "склад"
  },
  {
    "id": "89991904-5088-4fe2-b5ca-2f443a6fb57f",
    "region": "Київська",
    "subregion": "Сквирський",
    "settlement_name": "Сквира",
    "street": "вул. Богачевського 33",
    "coordinates": [49.73076960037727, 29.6601783999053],
    "daily": false,
    "price": 1311,
    "type": "квартира"
  },
  {
    "id": "daf26610-31cd-4a92-aef8-1a6a3eb36182",
    "region": "Київська",
    "subregion": "Біла Церква",
    "settlement_name": "Біла Церква",
    "street": "вул. Б. Хмельницького 13",
    "coordinates": [49.798877500028, 30.1126873999629],
    "daily": false,
    "price": 5976,
    "type": "склад"
  },
  {
    "id": "42409aab-de2f-4fb9-9204-0f987122a3ca",
    "region": "Київська",
    "subregion": "Васильків",
    "settlement_name": "Васильків",
    "street": "в/м Будинок офіцерів 11",
    "coordinates": [50.17702421529867, 30.31865637455391],
    "daily": false,
    "price": 6956,
    "type": "квартира"
  },
  {
    "id": "b8946983-85db-4956-90e3-f61ccaeb6ab1",
    "region": "Київська",
    "subregion": "Баришівський",
    "settlement_name": "Коржі",
    "street": "пл. Миколи Семеняки 1",
    "coordinates": [50.33634407706842, 31.35777468753938],
    "daily": true,
    "price": 4521,
    "type": "склад"
  },
  {
    "id": "edc402a7-c97f-442f-a821-4171cf4d4b52",
    "region": "Київська",
    "subregion": "Баришівський",
    "settlement_name": "Хмельовик",
    "street": "вул. Центральна Mon Jan 20 2020 02:00:00 GMT+0200 (Eastern European Standard Time)",
    "coordinates": [50.26864493373667, 31.60011833546073],
    "daily": false,
    "price": 6151,
    "type": "інше"
  },
  {
    "id": "7d691c5b-2858-4db4-9341-88b415287c9c",
    "region": "Київська",
    "subregion": "Білоцерківський",
    "settlement_name": "Мала Вільшанка",
    "street": "вул. Перемоги 24-а",
    "coordinates": [49.69307438907926, 30.08327519498235],
    "daily": true,
    "price": 4525,
    "type": "склад"
  },
  {
    "id": "dcadca67-906d-4ac0-90eb-0c169d798947",
    "region": "Київська",
    "subregion": "Білоцерківський",
    "settlement_name": "Трушки",
    "street": "вул. Центральна 4",
    "coordinates": [49.7694201233667, 29.94074724386391],
    "daily": false,
    "price": 8951,
    "type": "квартира"
  },
  {
    "id": "22cee0d5-fb1c-41f0-b531-e977248b935d",
    "region": "Київська",
    "subregion": "Богуславський",
    "settlement_name": "Іванівка",
    "street": "вул. Центральна 11",
    "coordinates": [49.55504460044177, 31.10358290004316],
    "daily": false,
    "price": 1699,
    "type": "склад"
  },
  {
    "id": "04e145a2-471a-4ff7-98e6-b9db1ba200f3",
    "region": "Київська",
    "subregion": "Богуславський",
    "settlement_name": "Щербашенці",
    "street": "вул. Пушкіна 1-а",
    "coordinates": [49.38202170136973, 30.88630261875049],
    "daily": false,
    "price": 4315,
    "type": "інше"
  },
  {
    "id": "e26e5e73-711c-4567-8cdc-be522e36a6ea",
    "region": "Київська",
    "subregion": "Бориспільський",
    "settlement_name": "Мала Стариця",
    "street": "вул. Михайлівська 38-б",
    "coordinates": [50.42451656372872, 31.15968141146828],
    "daily": true,
    "price": 1129,
    "type": "офіс"
  },
  {
    "id": "2072c2bc-f092-405f-a07f-0aec7ebc0701",
    "region": "Київська",
    "subregion": "Бородянський",
    "settlement_name": "Здвижівка",
    "street": "вул. Центральна 104",
    "coordinates": [50.67416475268443, 30.06777412857936],
    "daily": false,
    "price": 9651,
    "type": "склад"
  },
  {
    "id": "59d64f1f-8bf5-465e-9834-6e9ff04a9778",
    "region": "Київська",
    "subregion": "Броварський",
    "settlement_name": "Бобрик",
    "street": "вул. Шевченка 4",
    "coordinates": [50.65317663433842, 31.08135499212595],
    "daily": true,
    "price": 3995,
    "type": "інше"
  },
  {
    "id": "000211ab-eb02-4436-8195-0059cc1ca75a",
    "region": "Київська",
    "subregion": "Броварський",
    "settlement_name": "Рожни",
    "street": "вул. Свободи 41",
    "coordinates": [50.66273099965797, 30.72973990000591],
    "daily": false,
    "price": 6293,
    "type": "інше"
  },
  {
    "id": "a8323833-065e-4c95-a953-9096f43cc1dc",
    "region": "Київська",
    "subregion": "Васильківський",
    "settlement_name": "Зелений Бір",
    "street": "вул. Освіти 9",
    "coordinates": [50.2478539579179, 30.37368587467131],
    "daily": false,
    "price": 3670,
    "type": "офіс"
  },
  {
    "id": "2df4ec34-effa-4522-9f66-9385158b8bff",
    "region": "Київська",
    "subregion": "Васильківський",
    "settlement_name": "Рославичі",
    "street": "вул. Спасо-Преображенська 11",
    "coordinates": [50.24639019957515, 30.44154150001265],
    "daily": false,
    "price": 7560,
    "type": "інше"
  },
  {
    "id": "82278450-9a6c-4e2f-9533-9c413b0075bb",
    "region": "Київська",
    "subregion": "Вишгородський",
    "settlement_name": "Лебедівка",
    "street": "вул. Шевченка 2",
    "coordinates": [50.71436154503845, 30.54324104798671],
    "daily": true,
    "price": 7269,
    "type": "квартира"
  },
  {
    "id": "4258ae3a-7be3-4a03-994f-ca9c945ae262",
    "region": "Київська",
    "subregion": "Вишгородський",
    "settlement_name": "Хотянівка",
    "street": "вул. Деснянська 11",
    "coordinates": [50.59415115001248, 30.58142566927611],
    "daily": true,
    "price": 9304,
    "type": "офіс"
  },
  {
    "id": "2f264b61-8b6c-49ed-8747-3534595b5fb5",
    "region": "Київська",
    "subregion": "Володарський",
    "settlement_name": "Рачки",
    "street": "вул. Квітнева 50",
    "coordinates": [49.49823591683332, 29.90792293172404],
    "daily": false,
    "price": 862,
    "type": "квартира"
  },
  {
    "id": "0618ac7f-7258-4349-84ca-e50e11b25fcb",
    "region": "Київська",
    "subregion": "Згурівський",
    "settlement_name": "Пасківщина",
    "street": "вул. Свердлова 1",
    "coordinates": [50.50830228849942, 31.91805423459752],
    "daily": false,
    "price": 3653,
    "type": "офіс"
  },
  {
    "id": "2d0c69cf-2ebe-421d-8170-7eb641f377c5",
    "region": "Київська",
    "subregion": "Іванківський",
    "settlement_name": "Кропивня",
    "street": "вул. Поліська 69",
    "coordinates": [50.92181359176213, 29.52250875791863],
    "daily": true,
    "price": 4036,
    "type": "інше"
  },
  {
    "id": "f2fc8e5b-96f5-4bdc-b25b-2049436b63ad",
    "region": "Київська",
    "subregion": "Іванківський",
    "settlement_name": "Соснівка",
    "street": "вул. Центральна 33-а",
    "coordinates": [50.79500640023077, 30.0377646999881],
    "daily": false,
    "price": 2854,
    "type": "квартира"
  },
  {
    "id": "270c78a6-b952-4614-8120-c6c558c58d32",
    "region": "Київська",
    "subregion": "Кагарлицький",
    "settlement_name": "Кузьминці",
    "street": "вул. Путаненка 10-б",
    "coordinates": [49.94871429972891, 31.00036400001189],
    "daily": false,
    "price": 2929,
    "type": "офіс"
  },
  {
    "id": "7a2d78cf-88e5-4452-9b93-03e29f9d3b0b",
    "region": "Київська",
    "subregion": "Києво-Святошинський",
    "settlement_name": "Бобриця",
    "street": "вул. Шкільна 6",
    "coordinates": [50.34543951141578, 30.18734214479439],
    "daily": true,
    "price": 3090,
    "type": "квартира"
  },
  {
    "id": "3ed2af0b-8766-4015-917a-afeb4b15d2e7",
    "region": "Київська",
    "subregion": "Києво-Святошинський",
    "settlement_name": "Михайлівка Рубежівка",
    "street": "вул. Шкільна 1",
    "coordinates": [50.52237521711336, 30.13513725047608],
    "daily": true,
    "price": 2299,
    "type": "офіс"
  },
  {
    "id": "dfc85f74-3cf0-4230-9e45-a05e97dc51ce",
    "region": "Київська",
    "subregion": "Макарівський",
    "settlement_name": "Гавронщина",
    "street": "вул. Київська 17-а",
    "coordinates": [50.47826457220167, 29.86393404080742],
    "daily": false,
    "price": 4272,
    "type": "інше"
  },
  {
    "id": "b25df7de-6b42-4ce8-b102-c5d688981455",
    "region": "Київська",
    "subregion": "Макарівський",
    "settlement_name": "Осиково",
    "street": "вул. Горького 5",
    "coordinates": [50.32558112104183, 29.98410514719596],
    "daily": false,
    "price": 9901,
    "type": "квартира"
  },
  {
    "id": "1d782f26-11e0-40bb-9dfc-e17f555fd035",
    "region": "Київська",
    "subregion": "Миронівський",
    "settlement_name": "Карапиші",
    "street": "вул. Незалежності 38",
    "coordinates": [49.6422939545665, 30.79078977329053],
    "daily": false,
    "price": 5842,
    "type": "склад"
  },
  {
    "id": "97993e63-d420-426d-ad4c-ea245a07f720",
    "region": "Київська",
    "subregion": "Обухівський",
    "settlement_name": "Витачів",
    "street": "вул. Павла Осоченка 3",
    "coordinates": [50.11374817827912, 30.86003837471311],
    "daily": true,
    "price": 9455,
    "type": "інше"
  },
  {
    "id": "0f22c168-c639-4dc7-9a6c-c6dca156966b",
    "region": "Київська",
    "subregion": "Переяслав-Хмельницький",
    "settlement_name": "Гланишів",
    "street": "вул. Жовтнева 1-а",
    "coordinates": [50.15737832437701, 31.49973182714016],
    "daily": false,
    "price": 7312,
    "type": "інше"
  },
  {
    "id": "6b0c1f50-fcec-4c99-84f4-28018089cbe1",
    "region": "Київська",
    "subregion": "Переяслав-Хмельницький",
    "settlement_name": "Ковалин",
    "street": "вул. Центральна 20",
    "coordinates": [50.08020074466922, 31.20655854094353],
    "daily": true,
    "price": 5291,
    "type": "офіс"
  },
  {
    "id": "533c9f1c-0614-4f38-9774-4c3c6eeb778c",
    "region": "Київська",
    "subregion": "Поліський",
    "settlement_name": "Залишани",
    "street": "вул. Покровська 2",
    "coordinates": [51.04282530283258, 29.57245699496501],
    "daily": false,
    "price": 4204,
    "type": "офіс"
  },
  {
    "id": "9dec2b76-28bc-4940-b89d-42fc57e1dad8",
    "region": "Київська",
    "subregion": "Рокитнянський",
    "settlement_name": "Насташка",
    "street": "вул. Центральна 35",
    "coordinates": [49.64116616519492, 30.30071500141367],
    "daily": false,
    "price": 2981,
    "type": "офіс"
  },
  {
    "id": "5a502350-bacd-4b10-a354-a8a3ca4ff514",
    "region": "Київська",
    "subregion": "Сквирський",
    "settlement_name": "Красноліси",
    "street": "вул. Шевченка 4",
    "coordinates": [49.86888349978582, 29.78840789994947],
    "daily": false,
    "price": 6818,
    "type": "інше"
  },
  {
    "id": "410dd7ec-a938-4893-a154-42101a9e9198",
    "region": "Київська",
    "subregion": "Сквирський",
    "settlement_name": "Тхорівка",
    "street": "вул. Шкільна 38",
    "coordinates": [49.68751238883092, 29.76149206078829],
    "daily": false,
    "price": 1121,
    "type": "офіс"
  },
  {
    "id": "bb039aad-b61b-4572-addd-79c132405aa0",
    "region": "Київська",
    "subregion": "Ставищенський",
    "settlement_name": "Розкішна",
    "street": "вул. Шкільна 2-а",
    "coordinates": [49.37143876044753, 30.19056474168104],
    "daily": false,
    "price": 5581,
    "type": "квартира"
  },
  {
    "id": "eafcc9b8-be0d-4eac-b0e1-b9e536bc9465",
    "region": "Київська",
    "subregion": "Таращанський",
    "settlement_name": "Крива",
    "street": "вул. Розенкова 14-б",
    "coordinates": [49.5971523194103, 30.49589822163301],
    "daily": false,
    "price": 7133,
    "type": "інше"
  },
  {
    "id": "2e713f70-5d20-4c56-a7ba-50b71097aab5",
    "region": "Київська",
    "subregion": "Тетіївський",
    "settlement_name": "Галайки",
    "street": "вул. Центральна 11",
    "coordinates": [49.38791157552512, 29.87674791813218],
    "daily": false,
    "price": 9118,
    "type": "офіс"
  },
  {
    "id": "780dd898-422b-4d70-962a-475e22fed6bc",
    "region": "Київська",
    "subregion": "Тетіївський",
    "settlement_name": "Тайниця",
    "street": "вул.Центральна 46-а",
    "coordinates": [49.27441169965551, 29.93422960002884],
    "daily": false,
    "price": 5196,
    "type": "склад"
  },
  {
    "id": "4a09582e-a6ba-4d0e-87f4-35e8f022d6a7",
    "region": "Київська",
    "subregion": "Фастівський",
    "settlement_name": "Мотовилівська Слобідка",
    "street": "вул. Центральна 33",
    "coordinates": [50.13029710040981, 30.04333110002799],
    "daily": true,
    "price": 6050,
    "type": "офіс"
  },
  {
    "id": "cdf73a46-22f4-4a07-b192-5b9302d809bb",
    "region": "Київська",
    "subregion": "Яготинський",
    "settlement_name": "Лемешівка",
    "street": "вул. Незалежності 38-а",
    "coordinates": [50.30879176622038, 32.0752991536881],
    "daily": false,
    "price": 9300,
    "type": "квартира"
  },
  {
    "id": "60cb9a2e-edfe-4da5-8a7b-0d73c29017af",
    "region": "Київська",
    "subregion": "Бородянський",
    "settlement_name": "Немішаєве",
    "street": "вул. Садова 5",
    "coordinates": [50.56271581778248, 30.09013925858619],
    "daily": false,
    "price": 2588,
    "type": "офіс"
  },
  {
    "id": "255bea4a-d4ee-41fc-9aab-3c415df6fd03",
    "region": "Київська",
    "subregion": "Макарівський",
    "settlement_name": "Макарів",
    "street": "вул. Олександра Довженка 18",
    "coordinates": [50.46123852239519, 29.81201716898899],
    "daily": true,
    "price": 6911,
    "type": "склад"
  },
  {
    "id": "7ba97295-6b96-4136-babe-10f78c0bf76a",
    "region": "Кіровоградська",
    "subregion": "Бобринецький",
    "settlement_name": "Бобринець",
    "street": "вул. Миколаївська 78",
    "coordinates": [48.05686641746154, 32.1652634612202],
    "daily": true,
    "price": 3284,
    "type": "інше"
  },
  {
    "id": "7103e960-3157-4559-b7b3-37e403c4a06d",
    "region": "Кіровоградська",
    "subregion": "Кропивницький",
    "settlement_name": "Кропивницький",
    "street": "вул. Волинська 3-а",
    "coordinates": [48.54070220357232, 32.2308432895658],
    "daily": false,
    "price": 4766,
    "type": "офіс"
  },
  {
    "id": "be80de70-7b41-484b-bb95-f2b888d35249",
    "region": "Кіровоградська",
    "subregion": "Світловодськ",
    "settlement_name": "Світловодськ",
    "street": "вул. Приморська 54",
    "coordinates": [49.05514100038569, 33.21231749996151],
    "daily": false,
    "price": 3013,
    "type": "офіс"
  },
  {
    "id": "7c68fc50-0fcf-4e1a-b580-f360c724c712",
    "region": "Кіровоградська",
    "subregion": "Знам'янка",
    "settlement_name": "Знам'янка",
    "street": "вул. Олени Теліги 10-ж",
    "coordinates": [48.70421803844187, 32.68059023473956],
    "daily": true,
    "price": 5848,
    "type": "офіс"
  },
  {
    "id": "fad6a5da-2cf4-4d7b-96ec-0a443f3b2a44",
    "region": "Кіровоградська",
    "subregion": "Бобринецький",
    "settlement_name": "Мар'янівка",
    "street": "вул. Центральна 6",
    "coordinates": [48.08451839556562, 31.98105397029266],
    "daily": false,
    "price": 4632,
    "type": "квартира"
  },
  {
    "id": "bca730cc-0463-40c9-ae54-5faa573579b6",
    "region": "Кіровоградська",
    "subregion": "Вільшанський",
    "settlement_name": "Бузникувате",
    "street": "вул. Садова 16",
    "coordinates": [48.35281399250628, 30.75606314118198],
    "daily": false,
    "price": 8878,
    "type": "квартира"
  },
  {
    "id": "16808339-b97a-4ac8-b3a5-d57b8556890f",
    "region": "Кіровоградська",
    "subregion": "Гайворонський",
    "settlement_name": "Жакчик",
    "street": "вул. Совхозна 5",
    "coordinates": [48.20725571925333, 30.0696277740492],
    "daily": false,
    "price": 608,
    "type": "склад"
  },
  {
    "id": "9210816c-96ff-4b78-bbd5-e147b26f29e1",
    "region": "Кіровоградська",
    "subregion": "Кіровоградський",
    "settlement_name": "Гаївка",
    "street": "пров. Парковий 2",
    "coordinates": [48.50241759969926, 32.44743603709964],
    "daily": true,
    "price": 3863,
    "type": "офіс"
  },
  {
    "id": "a903d361-c103-444e-a9f5-911bfe897dab",
    "region": "Кіровоградська",
    "subregion": "Кіровоградський",
    "settlement_name": "Підгайці",
    "street": "вул. Говорова 5",
    "coordinates": [48.58670669438651, 32.24234503756896],
    "daily": true,
    "price": 3120,
    "type": "квартира"
  },
  {
    "id": "68434e88-b064-498c-b307-b24adab674b4",
    "region": "Кіровоградська",
    "subregion": "Голованівський",
    "settlement_name": "Липовеньке",
    "street": "вул. Шубіна 1",
    "coordinates": [48.2291218313884, 30.57704088434651],
    "daily": false,
    "price": 8718,
    "type": "офіс"
  },
  {
    "id": "b7793d37-2a1e-4b23-859f-961fac345684",
    "region": "Кіровоградська",
    "subregion": "Долинський",
    "settlement_name": "Василівка",
    "street": "вул. Українська 32",
    "coordinates": [48.25745685968052, 32.80238076650903],
    "daily": true,
    "price": 1122,
    "type": "інше"
  },
  {
    "id": "2d90b24c-bd15-4f18-b1fc-549b3e0d883c",
    "region": "Кіровоградська",
    "subregion": "Добровеличківський",
    "settlement_name": "Карбівка",
    "street": "вул. Леніна 7",
    "coordinates": [48.49559973403392, 31.12348565464338],
    "daily": false,
    "price": 9736,
    "type": "склад"
  },
  {
    "id": "df36f946-cda8-41c7-bd87-26ca7401a3f3",
    "region": "Кіровоградська",
    "subregion": "Компаніївський",
    "settlement_name": "Губівка",
    "street": "вул. Д. Бєдного 46",
    "coordinates": [48.33683945054788, 32.40062793966165],
    "daily": false,
    "price": 8468,
    "type": "інше"
  },
  {
    "id": "6bf3f458-0070-4435-8657-98b82b1d67f3",
    "region": "Кіровоградська",
    "subregion": "Маловисківський",
    "settlement_name": "Копанки",
    "street": "вул. Шкільна 24",
    "coordinates": [48.66713789402666, 31.38182287837236],
    "daily": true,
    "price": 1522,
    "type": "квартира"
  },
  {
    "id": "223c0801-6b53-4a33-8c5f-fe7520b17cc1",
    "region": "Кіровоградська",
    "subregion": "Новоархангельський",
    "settlement_name": "Кам'янече",
    "street": "вул. Лисова 7",
    "coordinates": [48.7260668056111, 30.69566682358608],
    "daily": false,
    "price": 3979,
    "type": "офіс"
  },
  {
    "id": "1450861e-85ca-448a-90e9-42f468aa937a",
    "region": "Кіровоградська",
    "subregion": "Новоукраїнський",
    "settlement_name": "Ганнівка",
    "street": "вул. Центральна 6",
    "coordinates": [48.19620335351673, 31.89693589147666],
    "daily": true,
    "price": 1531,
    "type": "склад"
  },
  {
    "id": "846c3f0f-5adb-4568-a2ed-cfb46e47ed39",
    "region": "Кіровоградська",
    "subregion": "Новоукраїнський",
    "settlement_name": "Приют",
    "street": "пров. Тихий 7",
    "coordinates": [48.29516732377426, 31.87117957142397],
    "daily": false,
    "price": 4186,
    "type": "склад"
  },
  {
    "id": "6a7d469f-0b34-44f3-91bd-d1d90de1f538",
    "region": "Кіровоградська",
    "subregion": "Новомиргородський",
    "settlement_name": "Мартоноша",
    "street": "вул. Миру 74",
    "coordinates": [48.75878078422765, 31.78454257472037],
    "daily": false,
    "price": 7340,
    "type": "склад"
  },
  {
    "id": "b769de68-8c64-4572-b754-bc30b4cd6abb",
    "region": "Кіровоградська",
    "subregion": "Новгородківський",
    "settlement_name": "Новомиколаївка",
    "street": "вул. Степова 9",
    "coordinates": [48.30954804216447, 32.5239708954302],
    "daily": false,
    "price": 1524,
    "type": "інше"
  },
  {
    "id": "aa098b62-8811-4747-a1a8-158dcb4472eb",
    "region": "Кіровоградська",
    "subregion": "Олександрівський",
    "settlement_name": "Підлісне",
    "street": "вул. Лесі Українки 47",
    "coordinates": [48.78425836068084, 32.25481147238334],
    "daily": false,
    "price": 5884,
    "type": "квартира"
  },
  {
    "id": "ec3436f2-f887-47ec-a7bb-9230c3f42758",
    "region": "Кіровоградська",
    "subregion": "Олександрійський",
    "settlement_name": "Новоселівка",
    "street": "вул. Шкільна 1",
    "coordinates": [48.68711106996302, 32.95648581317818],
    "daily": true,
    "price": 2420,
    "type": "склад"
  },
  {
    "id": "60e02ff4-b8ad-4e31-9bf7-9768933fc2e0",
    "region": "Кіровоградська",
    "subregion": "Онуфріївський",
    "settlement_name": "Деріївка",
    "street": "вул. Риндака 1",
    "coordinates": [48.91431918798856, 33.78555092960853],
    "daily": false,
    "price": 6756,
    "type": "офіс"
  },
  {
    "id": "46c31887-4d0b-4b1c-bae6-69ffe02e0011",
    "region": "Кіровоградська",
    "subregion": "Петрівський",
    "settlement_name": "Малинівка",
    "street": "вул. Шевченка 25",
    "coordinates": [48.41158136709129, 33.12463644689615],
    "daily": false,
    "price": 8975,
    "type": "квартира"
  },
  {
    "id": "b90aacd1-4555-42ce-ad3a-0c589570e4aa",
    "region": "Кіровоградська",
    "subregion": "Світловодський",
    "settlement_name": "Федірки",
    "street": "вул. Миру 39",
    "coordinates": [48.93328590821844, 32.80346901524705],
    "daily": false,
    "price": 548,
    "type": "квартира"
  },
  {
    "id": "e4e55e08-0531-4585-8ede-3cce3c7cfb8e",
    "region": "Кіровоградська",
    "subregion": "Устинівський",
    "settlement_name": "Брусівка",
    "street": "вул. Леніна 8",
    "coordinates": [48.10304990655481, 32.45184454205044],
    "daily": false,
    "price": 1380,
    "type": "інше"
  },
  {
    "id": "721aa12d-947f-4139-b24b-fa8f2a504e33",
    "region": "Кіровоградська",
    "subregion": "Знам'янський",
    "settlement_name": "Саблине",
    "street": "вул. Мирна 1",
    "coordinates": [48.64062335533967, 32.63098375002014],
    "daily": true,
    "price": 735,
    "type": "офіс"
  },
  {
    "id": "7ace71c7-a08a-41f7-a416-0ef4b5f13a49",
    "region": "Кіровоградська",
    "subregion": "Олександрійський",
    "settlement_name": "Улянівка",
    "street": "вул.Шкільна 1",
    "coordinates": [48.58902307105553, 33.46669110985113],
    "daily": true,
    "price": 9709,
    "type": "квартира"
  },
  {
    "id": "5c59f3fc-bd1b-4e37-b1c0-fcf6b17ab3ee",
    "region": "Кіровоградська",
    "subregion": "Новоархангельський",
    "settlement_name": "Новоархангельськ",
    "street": "вул. Слави 101",
    "coordinates": [48.64786500447338, 30.81647625801395],
    "daily": true,
    "price": 1009,
    "type": "офіс"
  },