[
  {
    "region": "Вінницька",
    "subregion": "Тульчинський",
    "settlement_name": "Тульчин",
    "street": "вул. Незалежності 8",
    "coordinates": [
      48.6759712995574,
      28.86063820000631
    ]
  },
  {
    "region": "Вінницька",
    "subregion": "Барський",
    "settlement_name": "Ходаки",
    "street": "вул. Дружби 1",
    "coordinates": [
      49.03192689971399,
      27.45519840003199
    ]
  },
  {
    "region": "Вінницька",
    "subregion": "Вінницький",
    "settlement_name": "Жабелівка",
    "street": "вул. Незалежності 25",
    "coordinates": [
      49.19108979985759,
      28.77072590006638
    ]
  },
  {
    "region": "Вінницька",
    "subregion": "Гайсинський",
    "settlement_name": "Харпачка",
    "street": "вул. Центральна 9-а",
    "coordinates": [
      48.74274430031889,
      29.21293950002697
    ]
  },
  {
    "region": "Вінницька",
    "subregion": "Іллінецький",
    "settlement_name": "Городок",
    "street": "вул. Першотравнева 80-а",
    "coordinates": [
      48.957963599812,
      29.52155730002628
    ]
  },
  {
    "region": "Вінницька",
    "subregion": "Калинівський",
    "settlement_name": "Хомутинці",
    "street": "вул.Першотравнева 2",
    "coordinates": [
      49.54434419993014,
      28.43348399999744
    ]
  },
  {
    "region": "Вінницька",
    "subregion": "Крижопільський",
    "settlement_name": "Зеленянка",
    "street": "вул. Перемоги 112",
    "coordinates": [
      48.34589460026382,
      28.87606290000367
    ]
  },
  {
    "region": "Вінницька",
    "subregion": "Літинський",
    "settlement_name": "Журавне",
    "street": "вул. Центральна 59",
    "coordinates": [
      49.50671410030571,
      28.18004029997377
    ]
  },
  {
    "region": "Вінницька",
    "subregion": "Могилів-Подільський",
    "settlement_name": "Сліди",
    "street": "вул. Центральна 10",
    "coordinates": [
      48.59082270017218,
      27.93844310004513
    ]
  },
  {
    "region": "Вінницька",
    "subregion": "Немирівський",
    "settlement_name": "Зяньківці",
    "street": "вул. Перемоги 55-а",
    "coordinates": [
      48.81471089994152,
      29.09146900002556
    ]
  },
  {
    "region": "Вінницька",
    "subregion": "Оратівський",
    "settlement_name": "Чагів",
    "street": "вул. Заїки 25",
    "coordinates": [
      49.21584780030344,
      29.32899599991596
    ]
  },
  {
    "region": "Вінницька",
    "subregion": "Погребищенський",
    "settlement_name": "Спичинці",
    "street": "вул. Поштова null",
    "coordinates": [
      49.40876280020248,
      29.15737459998495
    ]
  },
  {
    "region": "Вінницька",
    "subregion": "Тиврівський",
    "settlement_name": "Мала Вулига",
    "street": "вул. Миру 4",
    "coordinates": [
      48.86494290040064,
      28.63166969994794
    ]
  },
  {
    "region": "Вінницька",
    "subregion": "Тростянецький",
    "settlement_name": "Бережанка",
    "street": "вул. Шкільна 5",
    "coordinates": [
      48.39469500014711,
      29.18734060000912
    ]
  },
  {
    "region": "Вінницька",
    "subregion": "Хмільницький",
    "settlement_name": "Качанівка",
    "street": "вул. Миру 67",
    "coordinates": [
      49.64073940001835,
      27.90138749994205
    ]
  },
  {
    "region": "Вінницька",
    "subregion": "Чернівецький",
    "settlement_name": "Саїнка",
    "street": "вул. Церковна 2",
    "coordinates": [
      48.55096200041449,
      28.19169659991813
    ]
  },
  {
    "region": "Вінницька",
    "subregion": "Шаргородський",
    "settlement_name": "Руданське",
    "street": "вул. Центральна 25",
    "coordinates": [
      48.77977539970549,
      27.94303050002802
    ]
  },
  {
    "region": "Вінницька",
    "subregion": "Немирівський",
    "settlement_name": "Брацлав",
    "street": "вул. Шкільна 4",
    "coordinates": [
      48.81627060034265,
      28.94619889996774
    ]
  },
  {
    "region": "Волинська",
    "subregion": "Володимир-Волинський",
    "settlement_name": "Володимир-Волинський",
    "street": "вул. Генерала Шухевича 67",
    "coordinates": [
      50.85441681393274,
      24.32616194775814
    ]
  },
  {
    "region": "Волинська",
    "subregion": "Горохівський",
    "settlement_name": "Журавники",
    "street": "вул. Львівська 17",
    "coordinates": [
      50.42403965043091,
      24.68063706265046
    ]
  },
  {
    "region": "Волинська",
    "subregion": "Іваничівський",
    "settlement_name": "Стара Лішня",
    "street": "вул. Миру 51",
    "coordinates": [
      50.68389863722402,
      24.17164096243337
    ]
  },
  {
    "region": "Волинська",
    "subregion": "Ківерцівський",
    "settlement_name": "Башлики",
    "street": "вул. Шкільна 38",
    "coordinates": [
      50.82359685437456,
      25.84350707125924
    ]
  },
  {
    "region": "Волинська",
    "subregion": "Ковельский",
    "settlement_name": "Вербка",
    "street": "вул. Ватутіна 126",
    "coordinates": [
      51.24446099635118,
      24.71540103750482
    ]
  },
  {
    "region": "Волинська",
    "subregion": "Луцький",
    "settlement_name": "Баківці",
    "street": "вул. Перемоги 9-а",
    "coordinates": [
      50.59122446662625,
      25.26746435889036
    ]
  },
  {
    "region": "Волинська",
    "subregion": "Любешівський",
    "settlement_name": "Лобна",
    "street": "вул. Федорова 49",
    "coordinates": [
      51.64854371248968,
      25.57853244118658
    ]
  },
  {
    "region": "Волинська",
    "subregion": "Маневицький",
    "settlement_name": "Годомичі",
    "street": "вул. Шкільна 8",
    "coordinates": [
      51.06201399080258,
      25.50996171894893
    ]
  },
  {
    "region": "Волинська",
    "subregion": "Ратнівський",
    "settlement_name": "Самари",
    "street": "вул. Радянська 26",
    "coordinates": [
      51.86084742653059,
      24.61597245298925
    ]
  },
  {
    "region": "Волинська",
    "subregion": "Старовижівський",
    "settlement_name": "Сереховичі",
    "street": "вул. Радянська 24",
    "coordinates": [
      51.40811373257078,
      24.67187586881036
    ]
  },
  {
    "region": "Волинська",
    "subregion": "Ківерцівський",
    "settlement_name": "Цумань",
    "street": "вул. Мирна 2",
    "coordinates": [
      50.83153882829173,
      25.88028278070182
    ]
  },
  {
    "region": "Дніпропетровська",
    "subregion": "Дніпро Соборний",
    "settlement_name": "Дніпро",
    "street": "вул.Абхазька 4",
    "coordinates": [
      48.42442436048785,
      35.03358695331368
    ]
  },
  {
    "region": "Дніпропетровська",
    "subregion": "Кам'янське",
    "settlement_name": "Кам'янське",
    "street": "пр-т Перемоги 35",
    "coordinates": [
      48.59273099965581,
      34.55985999997945
    ]
  },
  {
    "region": "Дніпропетровська",
    "subregion": "Кривий Ріг Тернівський",
    "settlement_name": "Кривий Ріг",
    "street": "вул. Чарівна 20",
    "coordinates": [
      48.07643738497304,
      33.51827577707503
    ]
  },
  {
    "region": "Дніпропетровська",
    "subregion": "Апостолівський",
    "settlement_name": "Жовте",
    "street": "вул. Залізнична 9",
    "coordinates": [
      47.78548733405039,
      33.84008562887388
    ]
  },
  {
    "region": "Дніпропетровська",
    "subregion": "Верхньодніпровський",
    "settlement_name": "Підлужжя",
    "street": "вул. Громова 121-а",
    "coordinates": [
      48.63530940102333,
      34.3057995222273
    ]
  },
  {
    "region": "Дніпропетровська",
    "subregion": "Криничанський",
    "settlement_name": "Зоря",
    "street": "вул.Лесі Українки 1-б",
    "coordinates": [
      48.34218673195183,
      34.06144987538131
    ]
  },
  {
    "region": "Дніпропетровська",
    "subregion": "Межівський",
    "settlement_name": "Новогригорівка",
    "street": "вул. Центральна 75-а",
    "coordinates": [
      48.43318032213314,
      36.63961942360087
    ]
  },
  {
    "region": "Дніпропетровська",
    "subregion": "Новомосковський",
    "settlement_name": "Михайлівка",
    "street": "вул. Центральна 1",
    "coordinates": [
      48.88881777918576,
      35.55272155354097
    ]
  },
  {
    "region": "Дніпропетровська",
    "subregion": "Петриківський",
    "settlement_name": "Мала Петрівка",
    "street": "вул. Шкільна 3",
    "coordinates": [
      48.68755018257715,
      34.67398017713709
    ]
  },
  {
    "region": "Дніпропетровська",
    "subregion": "Синельниківський",
    "settlement_name": "Великомихайлівка",
    "street": "вул. Центральна 62",
    "coordinates": [
      48.15524552603653,
      35.62467228926027
    ]
  },
  {
    "region": "Дніпропетровська",
    "subregion": "Софіївський",
    "settlement_name": "Авдотівка",
    "street": "вул. Центральна 23",
    "coordinates": [
      47.97323659457701,
      33.68714896652045
    ]
  },
  {
    "region": "Дніпропетровська",
    "subregion": "Широківський",
    "settlement_name": "Водяне",
    "street": "вул. Воїнів-афганців 11",
    "coordinates": [
      47.71605872058479,
      33.4840954509008
    ]
  },
  {
    "region": "Дніпропетровська",
    "subregion": "Магдалинівський",
    "settlement_name": "Магдалинівка",
    "street": "вул. Центральна 38",
    "coordinates": [
      48.92155093881983,
      34.91252108064063
    ]
  },
  {
    "region": "Донецька",
    "subregion": "Бахмут",
    "settlement_name": "Бахмут",
    "street": "вул. Перемоги 23-а",
    "coordinates": [
      48.60578818211676,
      37.97666494446586
    ]
  },
  {
    "region": "Донецька",
    "subregion": "Покровськ",
    "settlement_name": "Покровськ",
    "street": "вул. Заводська 4",
    "coordinates": [
      48.29482877588117,
      37.19257733698894
    ]
  },
  {
    "region": "Донецька",
    "subregion": "Мар'їнський",
    "settlement_name": "Красногорівка",
    "street": "вул. Кірова 30",
    "coordinates": [
      48.00358322270423,
      37.50484701558236
    ]
  },
  {
    "region": "Донецька",
    "subregion": "Бахмутський",
    "settlement_name": "Никифорівка",
    "street": "вул. Тімірязева 45-а",
    "coordinates": [
      48.76807380237185,
      37.90149248381124
    ]
  },
  {
    "region": "Донецька",
    "subregion": "Волноваський",
    "settlement_name": "Прохорівка",
    "street": "вул.Центральна 53",
    "coordinates": [
      47.52708475486389,
      37.67304818891725
    ]
  },
  {
    "region": "Донецька",
    "subregion": "Костянтинівський",
    "settlement_name": "Нова Полтавка",
    "street": "вул. Молодіжна 11",
    "coordinates": [
      48.36510517462352,
      37.48840500388911
    ]
  },
  {
    "region": "Донецька",
    "subregion": "Олександрівський",
    "settlement_name": "Новополтавка",
    "street": "вул. Центральна 83",
    "coordinates": [
      48.69254763043169,
      36.86008547968716
    ]
  },
  {
    "region": "Донецька",
    "subregion": "Ясинуватський",
    "settlement_name": "Орлівка",
    "street": "вул. Центральна 42",
    "coordinates": [
      48.16226880017226,
      37.64465820004914
    ]
  },
  {
    "region": "Донецька",
    "subregion": "Слов'янський",
    "settlement_name": "Черкаське",
    "street": "вул. Т.Г. Шевченка 1",
    "coordinates": [
      48.83448327312508,
      37.39038208218432
    ]
  },
  {
    "region": "Житомирська",
    "subregion": "Житомир",
    "settlement_name": "Житомир",
    "street": "вул. Клосовського 10",
    "coordinates": [
      50.27603689983546,
      28.63350289999688
    ]
  },
  {
    "region": "Житомирська",
    "subregion": "Баранівський",
    "settlement_name": "Жарі",
    "street": "вул. Баранівська 4",
    "coordinates": [
      50.285330008065,
      27.46343499576561
    ]
  },
  {
    "region": "Житомирська",
    "subregion": "Брусилівський",
    "settlement_name": "Вільшка",
    "street": "вул. Центральна 22",
    "coordinates": [
      50.23201326612912,
      29.65057521351632
    ]
  },
  {
    "region": "Житомирська",
    "subregion": "Ємільчинський",
    "settlement_name": "Миколаївка",
    "street": "вул. Шевченка 43",
    "coordinates": [
      51.02380969537467,
      27.98973497826091
    ]
  },
  {
    "region": "Житомирська",
    "subregion": "Житомирський",
    "settlement_name": "Пряжів",
    "street": "вул. Партизанська null",
    "coordinates": [
      50.19021275348447,
      28.68409037345929
    ]
  },
  {
    "region": "Житомирська",
    "subregion": "Коростенський",
    "settlement_name": "Старики",
    "street": "вул. Набережна 0",
    "coordinates": [
      50.76743312166327,
      28.72187581773141
    ]
  },
  {
    "region": "Житомирська",
    "subregion": "Любарський",
    "settlement_name": "Березівка",
    "street": "0 null",
    "coordinates": [
      49.77600912512993,
      27.85256160627428
    ]
  },
  {
    "region": "Житомирська",
    "subregion": "Малинський",
    "settlement_name": "Пиріжки",
    "street": "вул. Соборна 27",
    "coordinates": [
      50.83167873205795,
      29.21014402433736
    ]
  },
  {
    "region": "Житомирська",
    "subregion": "Новоград-Волинський",
    "settlement_name": "Кропивня",
    "street": "вул. Дружби 2",
    "coordinates": [
      50.57111244056387,
      27.82329607189017
    ]
  },
  {
    "region": "Житомирська",
    "subregion": "Овруцький",
    "settlement_name": "Кованка",
    "street": "вул. Молодіжна 17",
    "coordinates": [
      51.38785407222208,
      28.09222499054338
    ]
  },
  {
    "region": "Житомирська",
    "subregion": "Олевський",
    "settlement_name": "Копище",
    "street": "вул. Партизанська 50-б",
    "coordinates": [
      51.58868651567003,
      27.85424123487793
    ]
  },
  {
    "region": "Житомирська",
    "subregion": "Радомишльський",
    "settlement_name": "Кичкирі",
    "street": "вул. Центральна 159",
    "coordinates": [
      50.44017758187005,
      29.17917670494558
    ]
  },
  {
    "region": "Житомирська",
    "subregion": "Ружинський",
    "settlement_name": "Вчорайше",
    "street": "вул. Шкільна 55",
    "coordinates": [
      49.86450071096793,
      29.13945623142684
    ]
  },
  {
    "region": "Житомирська",
    "subregion": "Черняхівський",
    "settlement_name": "Горбулів",
    "street": "вул. 1 Травня 1",
    "coordinates": [
      50.53865961716847,
      28.92299924204139
    ]
  },
  {
    "region": "Житомирська",
    "subregion": "Баранівський",
    "settlement_name": "Кам'яний Брід",
    "street": "вул. Лесі Українки 22",
    "coordinates": [
      50.41589772464989,
      27.83810163579441
    ]
  },
  {
    "region": "Житомирська",
    "subregion": "Чуднівський",
    "settlement_name": "Іванопіль",
    "street": "вул. Леніна 35",
    "coordinates": [
      49.87802198127063,
      28.20976372947127
    ]
  },
  {
    "region": "Закарпатська",
    "subregion": "Берегівський",
    "settlement_name": "Чома",
    "street": "вул. Ш. Петефі 49",
    "coordinates": [
      48.13504657373559,
      22.63449551353863
    ]
  },
  {
    "region": "Закарпатська",
    "subregion": "Великоберезнянський",
    "settlement_name": "Чорноголова",
    "street": "0.0 296",
    "coordinates": [
      48.85355469372563,
      22.60320192081084
    ]
  },
  {
    "region": "Закарпатська",
    "subregion": "Іршавський",
    "settlement_name": "Брід",
    "street": "вул. Центральна 75",
    "coordinates": [
      48.34953420363062,
      23.00425084170098
    ]
  },
  {
    "region": "Закарпатська",
    "subregion": "Міжгірський",
    "settlement_name": "Річка",
    "street": "0.0 198",
    "coordinates": [
      48.59138694725659,
      23.37494123438772
    ]
  },
  {
    "region": "Закарпатська",
    "subregion": "Мукачівський",
    "settlement_name": "Нижній Коропець",
    "street": "вул. Миру 49",
    "coordinates": [
      48.36082937790369,
      22.66318723708464
    ]
  },
  {
    "region": "Закарпатська",
    "subregion": "Рахівський",
    "settlement_name": "Лазещина",
    "street": "прис. Плитоватий 1155",
    "coordinates": [
      48.27357359968525,
      24.41197100004357
    ]
  },
  {
    "region": "Закарпатська",
    "subregion": "Тячівський",
    "settlement_name": "Красна",
    "street": "вул. Миру 203",
    "coordinates": [
      48.22146867143149,
      23.92797698651297
    ]
  },
  {
    "region": "Закарпатська",
    "subregion": "Ужгородський",
    "settlement_name": "Циганівці",
    "street": "вул. Миру null",
    "coordinates": [
      48.59625977233572,
      22.39035128289317
    ]
  },
  {
    "region": "Закарпатська",
    "subregion": "Великоберезнянський",
    "settlement_name": "Великий Березний",
    "street": "вул. Шевченка 2",
    "coordinates": [
      48.9008763957331,
      22.45842166680132
    ]
  },
  {
    "region": "Запорізька",
    "subregion": "Запоріжжя",
    "settlement_name": "Запоріжжя",
    "street": "вул. Олександрівська 51",
    "coordinates": [
      47.81855440016676,
      35.17677848688312
    ]
  },
  {
    "region": "Запорізька",
    "subregion": "Гуляйпільський",
    "settlement_name": "Гуляйполе",
    "street": "вул. Велика 337",
    "coordinates": [
      47.65228784562355,
      36.30177770935829
    ]
  },
  {
    "region": "Запорізька",
    "subregion": "Веселівський",
    "settlement_name": "Веселе",
    "street": "вул. Центральна 16",
    "coordinates": [
      47.01388309619169,
      34.92039199642795
    ]
  },
  {
    "region": "Запорізька",
    "subregion": "Гуляйпільський",
    "settlement_name": "Темирівка",
    "street": "вул. Миру 48-в",
    "coordinates": [
      47.82218579916521,
      36.57257541518249
    ]
  },
  {
    "region": "Запорізька",
    "subregion": "Більмацький",
    "settlement_name": "Сміле",
    "street": "вул. Чкалова 77",
    "coordinates": [
      47.54441789732003,
      36.68230637571953
    ]
  },
  {
    "region": "Запорізька",
    "subregion": "Новомиколаївський",
    "settlement_name": "Листівка",
    "street": "буд. 52 null",
    "coordinates": [
      47.84998426996563,
      35.7623576912077
    ]
  },
  {
    "region": "Запорізька",
    "subregion": "Приазовський",
    "settlement_name": "Володимирівка",
    "street": "вул. Молодіжна 47",
    "coordinates": [
      46.7274013381201,
      35.8580345692648
    ]
  },
  {
    "region": "Запорізька",
    "subregion": "Розівський",
    "settlement_name": "Зоря",
    "street": "вул. Миру 41",
    "coordinates": [
      47.52572804971444,
      36.94310378437835
    ]
  },
  {
    "region": "Запорізька",
    "subregion": "Якимівський",
    "settlement_name": "Мирне",
    "street": "вул. Шкільна 77",
    "coordinates": [
      46.71643004802356,
      35.26334773044491
    ]
  },
  {
    "region": "Запорізька",
    "subregion": "Чернігівський",
    "settlement_name": "Чернігівка",
    "street": "вул. Соборна 180",
    "coordinates": [
      47.20308161131291,
      36.16755863832639
    ]
  },
  {
    "region": "Івано-Франківська",
    "subregion": "Косівський",
    "settlement_name": "Косів",
    "street": "вул. Незалежності 52",
    "coordinates": [
      48.31905927014895,
      25.08945314093473
    ]
  },
  {
    "region": "Івано-Франківська",
    "subregion": "Богородчанський",
    "settlement_name": "Раковець",
    "street": "вул. Шевченка 68",
    "coordinates": [
      48.71039022377149,
      24.37791407324333
    ]
  },
  {
    "region": "Івано-Франківська",
    "subregion": "Верховинський",
    "settlement_name": "Яблуниця",
    "street": "0.0 null",
    "coordinates": [
      48.02764056355419,
      24.91651443373815
    ]
  },
  {
    "region": "Івано-Франківська",
    "subregion": "Городенківський",
    "settlement_name": "Колінки",
    "street": "вул. Стефаника 7",
    "coordinates": [
      48.79064345330944,
      25.49716934031977
    ]
  },
  {
    "region": "Івано-Франківська",
    "subregion": "Долинський",
    "settlement_name": "Новошин",
    "street": "вул. Д. Галицького 26",
    "coordinates": [
      48.89454769418558,
      23.88919396196863
    ]
  },
  {
    "region": "Івано-Франківська",
    "subregion": "Калуський",
    "settlement_name": "Пійло",
    "street": "вул. Грушевського 106",
    "coordinates": [
      49.00551846579697,
      24.30840237874312
    ]
  },
  {
    "region": "Івано-Франківська",
    "subregion": "Коломийський",
    "settlement_name": "Мала Кам`янка",
    "street": "вул. Незалежності 33",
    "coordinates": [
      48.59216313838731,
      25.02178446589462
    ]
  },
  {
    "region": "Івано-Франківська",
    "subregion": "Косівський",
    "settlement_name": "Малий Рожин",
    "street": "вул. Головна 1",
    "coordinates": [
      48.24904827674727,
      25.10550786323387
    ]
  },
  {
    "region": "Івано-Франківська",
    "subregion": "Надвірнянський",
    "settlement_name": "Пасічна-Поле",
    "street": "вул. Софії Галечко 21",
    "coordinates": [
      48.57469676806704,
      24.44525743432431
    ]
  },
  {
    "region": "Івано-Франківська",
    "subregion": "Рогатинський",
    "settlement_name": "Фрага",
    "street": "вул. Миру 4-а",
    "coordinates": [
      49.47136888012449,
      24.44058047956243
    ]
  },
  {
    "region": "Івано-Франківська",
    "subregion": "Снятинський",
    "settlement_name": "Будилів",
    "street": "вул. Грушевського 19",
    "coordinates": [
      48.4583604116156,
      25.50916569871615
    ]
  },
  {
    "region": "Івано-Франківська",
    "subregion": "Тисменицький",
    "settlement_name": "Загвіздя",
    "street": "вул. Липова 22",
    "coordinates": [
      48.92471297143781,
      24.65648752030529
    ]
  },
  {
    "region": "Івано-Франківська",
    "subregion": "Тлумацький",
    "settlement_name": "Діброва",
    "street": "вул. Тернопільська 2",
    "coordinates": [
      48.97074832373318,
      25.09630776268288
    ]
  },
  {
    "region": "Івано-Франківська",
    "subregion": "Калуський",
    "settlement_name": "Войнилів",
    "street": "вул.Шевченка 127",
    "coordinates": [
      49.12591255147029,
      24.49048463234487
    ]
  },
  {
    "region": "Київська",
    "subregion": "Києво-Святошинський",
    "settlement_name": "Боярка",
    "street": "вул. Молодіжна 77",
    "coordinates": [
      50.33411059990166,
      30.27693540004713
    ]
  },
  {
    "region": "Київська",
    "subregion": "Васильків",
    "settlement_name": "Васильків",
    "street": "в/м Будинок офіцерів 11",
    "coordinates": [
      50.17702421529867,
      30.31865637455391
    ]
  },
  {
    "region": "Київська",
    "subregion": "Білоцерківський",
    "settlement_name": "Глушки",
    "street": "вул. Центральна 39",
    "coordinates": [
      49.8847347866845,
      30.2140902527423
    ]
  },
  {
    "region": "Київська",
    "subregion": "Богуславський",
    "settlement_name": "Іванівка",
    "street": "вул. Центральна 11",
    "coordinates": [
      49.55504460044177,
      31.10358290004316
    ]
  },
  {
    "region": "Київська",
    "subregion": "Бориспільський",
    "settlement_name": "Старе",
    "street": "вул. Дніпрова 49",
    "coordinates": [
      50.14835823123982,
      31.08110488534622
    ]
  },
  {
    "region": "Київська",
    "subregion": "Броварський",
    "settlement_name": "Рожни",
    "street": "вул. Свободи 41",
    "coordinates": [
      50.66273099965797,
      30.72973990000591
    ]
  },
  {
    "region": "Київська",
    "subregion": "Вишгородський",
    "settlement_name": "Вахівка",
    "street": "вул. Лісова 50",
    "coordinates": [
      50.93993335005268,
      30.09366772324086
    ]
  },
  {
    "region": "Київська",
    "subregion": "Володарський",
    "settlement_name": "Рачки",
    "street": "вул. Квітнева 50",
    "coordinates": [
      49.49823591683332,
      29.90792293172404
    ]
  },
  {
    "region": "Київська",
    "subregion": "Іванківський",
    "settlement_name": "Нові Макалевичі",
    "street": "вул. Правди 6",
    "coordinates": [
      51.07689406668883,
      29.91177339315326
    ]
  },
  {
    "region": "Київська",
    "subregion": "Києво-Святошинський",
    "settlement_name": "Бобриця",
    "street": "вул. Шкільна 6",
    "coordinates": [
      50.34543951141578,
      30.18734214479439
    ]
  },
  {
    "region": "Київська",
    "subregion": "Макарівський",
    "settlement_name": "Людвинівка",
    "street": "вул. Механізаторів 2",
    "coordinates": [
      50.38814147475689,
      29.82578967599783
    ]
  },
  {
    "region": "Київська",
    "subregion": "Обухівський",
    "settlement_name": "Витачів",
    "street": "вул. Павла Осоченка 3",
    "coordinates": [
      50.11374817827912,
      30.86003837471311
    ]
  },
  {
    "region": "Київська",
    "subregion": "Переяслав-Хмельницький",
    "settlement_name": "Тарасівка",
    "street": "вул. Шевченка 3",
    "coordinates": [
      50.34455705775371,
      30.31769067119577
    ]
  },
  {
    "region": "Київська",
    "subregion": "Сквирський",
    "settlement_name": "Красноліси",
    "street": "вул. Шевченка 4",
    "coordinates": [
      49.86888349978582,
      29.78840789994947
    ]
  },
  {
    "region": "Київська",
    "subregion": "Таращанський",
    "settlement_name": "Бовкун",
    "street": "0 null",
    "coordinates": [
      49.58160684815545,
      30.63438723762227
    ]
  },
  {
    "region": "Київська",
    "subregion": "Тетіївський",
    "settlement_name": "Тайниця",
    "street": "вул.Центральна 46-а",
    "coordinates": [
      49.27441169965551,
      29.93422960002884
    ]
  },
  {
    "region": "Київська",
    "subregion": "Яготинський",
    "settlement_name": "Черняхівка",
    "street": "вул. Шкільна 1",
    "coordinates": [
      50.21375873722744,
      31.93121026252852
    ]
  },
  {
    "region": "Кіровоградська",
    "subregion": "Бобринецький",
    "settlement_name": "Бобринець",
    "street": "вул. Миколаївська 78",
    "coordinates": [
      48.05686641746154,
      32.1652634612202
    ]
  },
  {
    "region": "Кіровоградська",
    "subregion": "Олександрія",
    "settlement_name": "Олександрія",
    "street": "вул. Григорія Сокальського 35",
    "coordinates": [
      48.6691257706314,
      33.12742508849922
    ]
  },
  {
    "region": "Кіровоградська",
    "subregion": "Вільшанський",
    "settlement_name": "Бузникувате",
    "street": "вул. Садова 16",
    "coordinates": [
      48.35281399250628,
      30.75606314118198
    ]
  },
  {
    "region": "Кіровоградська",
    "subregion": "Кіровоградський",
    "settlement_name": "Могутнє",
    "street": "вул. Миру 113",
    "coordinates": [
      48.67979799310783,
      31.98303187207897
    ]
  },
  {
    "region": "Кіровоградська",
    "subregion": "Долинський",
    "settlement_name": "Василівка",
    "street": "вул. Українська 32",
    "coordinates": [
      48.25745685968052,
      32.80238076650903
    ]
  },
  {
    "region": "Кіровоградська",
    "subregion": "Компаніївський",
    "settlement_name": "Сасівка",
    "street": "вул. Ювілейна 7",
    "coordinates": [
      48.28665131482774,
      32.3344029126694
    ]
  },
  {
    "region": "Кіровоградська",
    "subregion": "Новоукраїнський",
    "settlement_name": "Ганнівка",
    "street": "вул. Центральна 6",
    "coordinates": [
      48.19620335351673,
      31.89693589147666
    ]
  },
  {
    "region": "Кіровоградська",
    "subregion": "Новомиргородський",
    "settlement_name": "Дібрівка",
    "street": "вул. Шевченка 3",
    "coordinates": [
      48.8561377517627,
      31.86225628944362
    ]
  },
  {
    "region": "Кіровоградська",
    "subregion": "Олександрійський",
    "settlement_name": "Новоселівка",
    "street": "вул. Шкільна 1",
    "coordinates": [
      48.68711106996302,
      32.95648581317818
    ]
  },
  {
    "region": "Кіровоградська",
    "subregion": "Світловодський",
    "settlement_name": "Захарівка",
    "street": "вул. Гагаріна 99",
    "coordinates": [
      48.84736859159719,
      32.99765144785954
    ]
  },
  {
    "region": "Кіровоградська",
    "subregion": "Знам'янський",
    "settlement_name": "Саблине",
    "street": "вул. Мирна 1",
    "coordinates": [
      48.64062335533967,
      32.63098375002014
    ]
  },
  {
    "region": "Кіровоградська",
    "subregion": "Олександрійський",
    "settlement_name": "Нова Прага",
    "street": "вул. Садова 118",
    "coordinates": [
      48.56919930380279,
      32.90411192250664
    ]
  },
  {
    "region": "Луганська",
    "subregion": "Старобільський",
    "settlement_name": "Старобільськ",
    "street": "кв. Дружби 1",
    "coordinates": [
      49.27693809594112,
      38.92470398000063
    ]
  },
  {
    "region": "Луганська",
    "subregion": "Кремінський",
    "settlement_name": "Боровеньки",
    "street": "вул. Молодіжна 1",
    "coordinates": [
      49.03911685600908,
      38.56968279394464
    ]
  },
  {
    "region": "Луганська",
    "subregion": "Новоайдарський",
    "settlement_name": "Олексіївка",
    "street": "вул. Центральна 1",
    "coordinates": [
      49.01338604576432,
      39.17832242660617
    ]
  },
  {
    "region": "Луганська",
    "subregion": "Сватівський",
    "settlement_name": "Рудівка",
    "street": "пл. Перемоги 20",
    "coordinates": [
      49.4032971808085,
      38.44864184647692
    ]
  },
  {
    "region": "Луганська",
    "subregion": "Старобільський",
    "settlement_name": "Хворостянівка",
    "street": "вул. Миру 13",
    "coordinates": [
      49.14872238686722,
      38.88929363644023
    ]
  },
  {
    "region": "Луганська",
    "subregion": "Попаснянський",
    "settlement_name": "Білогорівка",
    "street": "вул. Центральна 4",
    "coordinates": [
      48.92440186295552,
      38.24580108500859
    ]
  },
  {
    "region": "Львівська",
    "subregion": "Львів",
    "settlement_name": "Львів",
    "street": "вул. Миколайчука 1",
    "coordinates": [
      49.86841039963931,
      24.04279070009949
    ]
  },
  {
    "region": "Львівська",
    "subregion": "Жидачівський",
    "settlement_name": "Жидачів",
    "street": "вул. Шашкевича 15",
    "coordinates": [
      49.38682852392604,
      24.13584068091173
    ]
  },
  {
    "region": "Львівська",
    "subregion": "Турківський",
    "settlement_name": "Турка",
    "street": "пл. Ринок 1",
    "coordinates": [
      49.15245715787734,
      23.03482363720838
    ]
  },
  {
    "region": "Львівська",
    "subregion": "Бродівський",
    "settlement_name": "Піски",
    "street": "вул. Шкільна 6",
    "coordinates": [
      50.22902847617311,
      25.07657097120812
    ]
  },
  {
    "region": "Львівська",
    "subregion": "Буський",
    "settlement_name": "Соколівка",
    "street": "вул. Бродівська 5",
    "coordinates": [
      50.03375029828995,
      24.84551161012271
    ]
  },
  {
    "region": "Львівська",
    "subregion": "Городоцький",
    "settlement_name": "Суховоля",
    "street": "вул. Шкільна 3",
    "coordinates": [
      49.83031104263007,
      23.85213652969362
    ]
  },
  {
    "region": "Львівська",
    "subregion": "Дрогобицький",
    "settlement_name": "Ролів",
    "street": "вул. Шевченка 71",
    "coordinates": [
      49.44610337350001,
      23.62697088351557
    ]
  },
  {
    "region": "Львівська",
    "subregion": "Жидачівський",
    "settlement_name": "Межиріччя",
    "street": "вул. Шевченка 30",
    "coordinates": [
      49.40998630013905,
      24.16390211800414
    ]
  },
  {
    "region": "Львівська",
    "subregion": "Жовківський",
    "settlement_name": "Кам’яна Гора",
    "street": "вул. Хмельницького 58-а",
    "coordinates": [
      50.13443729495047,
      23.65321255529174
    ]
  },
  {
    "region": "Львівська",
    "subregion": "Золочівський",
    "settlement_name": "Гологори",
    "street": "вул. Головна 15-а",
    "coordinates": [
      49.75205443541913,
      24.72233694493323
    ]
  },
  {
    "region": "Львівська",
    "subregion": "Золочівський",
    "settlement_name": "Ясенівці",
    "street": "вул. Львівська 33",
    "coordinates": [
      49.80512545894523,
      24.84491902697978
    ]
  },
  {
    "region": "Львівська",
    "subregion": "Миколаївський",
    "settlement_name": "Верин",
    "street": "вул. Коновальця 16",
    "coordinates": [
      49.48128949807899,
      23.98998933993407
    ]
  },
  {
    "region": "Львівська",
    "subregion": "Мостиський",
    "settlement_name": "Заверхи",
    "street": "вул. В.Івасюка 17",
    "coordinates": [
      49.85515175067822,
      23.04357390891527
    ]
  },
  {
    "region": "Львівська",
    "subregion": "Перемишлянський",
    "settlement_name": "Волощино",
    "street": "вул. Т.Шевченка 129-а",
    "coordinates": [
      49.62577667730169,
      24.22481136659603
    ]
  },
  {
    "region": "Львівська",
    "subregion": "Пустомитівський",
    "settlement_name": "Малечковичі",
    "street": "вул. Нова 10",
    "coordinates": [
      49.75141251089666,
      23.95433093754806
    ]
  },
  {
    "region": "Львівська",
    "subregion": "Радехівський",
    "settlement_name": "Немилів",
    "street": "вул. Центральна 36",
    "coordinates": [
      50.26365968558103,
      24.75746832638557
    ]
  },
  {
    "region": "Львівська",
    "subregion": "Самбірський",
    "settlement_name": "Залужани",
    "street": "вул. Січових Стрільців 4",
    "coordinates": [
      49.50890172765251,
      23.45157708437931
    ]
  },
  {
    "region": "Львівська",
    "subregion": "Сколівський",
    "settlement_name": "Волосянка",
    "street": "вул. Шевченка 40",
    "coordinates": [
      48.78036492146114,
      23.42752202607899
    ]
  },
  {
    "region": "Львівська",
    "subregion": "Сокальський",
    "settlement_name": "Бутини",
    "street": "вул. Травнева 48",
    "coordinates": [
      50.23081520362758,
      23.99307355683751
    ]
  },
  {
    "region": "Львівська",
    "subregion": "Сокальський",
    "settlement_name": "Тартаків",
    "street": "вул. Шевченка 63",
    "coordinates": [
      50.46069877118551,
      24.39599319665269
    ]
  },
  {
    "region": "Львівська",
    "subregion": "Старосамбірський",
    "settlement_name": "Муроване",
    "street": "вул. Шкільна 1",
    "coordinates": [
      49.52406675129913,
      22.93799320814563
    ]
  },
  {
    "region": "Львівська",
    "subregion": "Стрийський",
    "settlement_name": "Добрівляни",
    "street": "вул. Довга 99",
    "coordinates": [
      49.29140858990365,
      23.85485604005313
    ]
  },
  {
    "region": "Львівська",
    "subregion": "Турківський",
    "settlement_name": "Бітля",
    "street": "вул. Центральна null",
    "coordinates": [
      48.97873164874171,
      22.99274742396225
    ]
  },
  {
    "region": "Львівська",
    "subregion": "Турківський",
    "settlement_name": "Ясенка-Стецьова",
    "street": "вул. Стецьова null",
    "coordinates": [
      49.1692222430465,
      23.1357817450629
    ]
  },
  {
    "region": "Львівська",
    "subregion": "Яворівський",
    "settlement_name": "Середкевичі",
    "street": "вул. Центральна 4",
    "coordinates": [
      50.15592680835913,
      23.55261548782931
    ]
  },
  {
    "region": "Миколаївська",
    "subregion": "Миколаїв",
    "settlement_name": "Миколаїв",
    "street": "вул. Велика Морська 92",
    "coordinates": [
      46.96941129986976,
      32.0000378000535
    ]
  },
  {
    "region": "Миколаївська",
    "subregion": "Баштанський",
    "settlement_name": "Баштанка",
    "street": "вул. Сизоненка 1-б",
    "coordinates": [
      47.40684061099998,
      32.45624639924405
    ]
  },
  {
    "region": "Миколаївська",
    "subregion": "Баштанський",
    "settlement_name": "Добра Криниця",
    "street": "вул. Центральна 3",
    "coordinates": [
      47.23352906500718,
      32.32561204975777
    ]
  },
  {
    "region": "Миколаївська",
    "subregion": "Березнегуватський",
    "settlement_name": "Новоукраїнка",
    "street": "вул. Миру 9",
    "coordinates": [
      47.45116482634099,
      32.85139459084698
    ]
  },
  {
    "region": "Миколаївська",
    "subregion": "Вознесенський",
    "settlement_name": "Григорівка",
    "street": "вул. Центральна 5",
    "coordinates": [
      47.57819299127695,
      31.53759694563579
    ]
  },
  {
    "region": "Миколаївська",
    "subregion": "Доманівський",
    "settlement_name": "Петропавлівка",
    "street": "вул. Торгова 15",
    "coordinates": [
      47.68177691798695,
      30.90461797445722
    ]
  },
  {
    "region": "Миколаївська",
    "subregion": "Казанківський",
    "settlement_name": "Михайлівка",
    "street": "вул. Клубна 1",
    "coordinates": [
      47.85960890014471,
      33.00209634191248
    ]
  },
  {
    "region": "Миколаївська",
    "subregion": "Новобузький",
    "settlement_name": "Новополтавка",
    "street": "вул. Мельнична 105-а",
    "coordinates": [
      47.54668918805707,
      32.50187067416763
    ]
  },
  {
    "region": "Миколаївська",
    "subregion": "Первомайський",
    "settlement_name": "Іванівка",
    "street": "вул. Трудової Слави 1",
    "coordinates": [
      47.95596446156201,
      31.02388442365628
    ]
  },
  {
    "region": "Миколаївська",
    "subregion": "Снігурівський",
    "settlement_name": "Промінь",
    "street": "вул. Центральна 26-в",
    "coordinates": [
      46.89545401041762,
      32.73857301923179
    ]
  },
  {
    "region": "Одеська",
    "subregion": "Одеса",
    "settlement_name": "Одеса",
    "street": "вул. Космонавтів Thu Jan 23 2020 02:00:00 GMT+0200 (Eastern European Standard Time)",
    "coordinates": [
      46.42707590042745,
      30.71045770002084
    ]
  },
  {
    "region": "Одеська",
    "subregion": "Арцизький",
    "settlement_name": "Арциз",
    "street": "вул. 28 Червня 118-а",
    "coordinates": [
      45.98718472411041,
      29.42751205391186
    ]
  },
  {
    "region": "Одеська",
    "subregion": "Ананьївський",
    "settlement_name": "Гандрабури",
    "street": "вул. Заречна 134",
    "coordinates": [
      47.72192410407246,
      29.86973287878539
    ]
  },
  {
    "region": "Одеська",
    "subregion": "Балтський",
    "settlement_name": "Євтодія",
    "street": "вул. Шевченка 15",
    "coordinates": [
      47.96222547846114,
      29.43129626492251
    ]
  },
  {
    "region": "Одеська",
    "subregion": "Березівський",
    "settlement_name": "Ульянівка",
    "street": "вул. Миру 5",
    "coordinates": [
      47.47006281783273,
      30.83545982592621
    ]
  },
  {
    "region": "Одеська",
    "subregion": "Біляївський",
    "settlement_name": "Великий Дальник",
    "street": "вул. Шкільна null",
    "coordinates": [
      46.46699401487517,
      30.56187875904336
    ]
  },
  {
    "region": "Одеська",
    "subregion": "Великомихайлівський",
    "settlement_name": "Новосавицьке",
    "street": "вул. Центральна null",
    "coordinates": [
      46.98557082959625,
      29.7644685100138
    ]
  },
  {
    "region": "Одеська",
    "subregion": "Кілійський",
    "settlement_name": "Десантне",
    "street": "вул. Шкільна 45",
    "coordinates": [
      45.57451638413194,
      29.53791545824564
    ]
  },
  {
    "region": "Одеська",
    "subregion": "Лиманський",
    "settlement_name": "Любопіль",
    "street": "вул. Суворова 54",
    "coordinates": [
      46.72128031763204,
      31.09600737326354
    ]
  },
  {
    "region": "Одеська",
    "subregion": "Окнянський",
    "settlement_name": "Артирівка",
    "street": "вул. Шкільна null",
    "coordinates": [
      47.4747909415749,
      29.36429207280132
    ]
  },
  {
    "region": "Одеська",
    "subregion": "Любашівський",
    "settlement_name": "Ясенове Друге",
    "street": "пл. Свято-Покрівська 12",
    "coordinates": [
      47.8997090732887,
      30.00744909737275
    ]
  },
  {
    "region": "Одеська",
    "subregion": "Ренійський",
    "settlement_name": "Плавні",
    "street": "вул. Миру 97-б",
    "coordinates": [
      45.39717203909743,
      28.58066853216458
    ]
  },
  {
    "region": "Одеська",
    "subregion": "Саратський",
    "settlement_name": "Миколаївка-Новоросійська",
    "street": "вул. Миру 27",
    "coordinates": [
      46.13322472871041,
      29.90653919642377
    ]
  },
  {
    "region": "Одеська",
    "subregion": "Татарбунарський",
    "settlement_name": "Дмитрівка",
    "street": "вул. Гагаріна 11",
    "coordinates": [
      45.8388280670322,
      29.48676308479008
    ]
  },
  {
    "region": "Одеська",
    "subregion": "Чорноморськ",
    "settlement_name": "Олександрівка",
    "street": "вул. Центральна 76",
    "coordinates": [
      46.3289384180046,
      30.63437539895733
    ]
  },
  {
    "region": "Одеська",
    "subregion": "Ширяївський",
    "settlement_name": "Ширяєве",
    "street": "вул. Коробченка 12",
    "coordinates": [
      47.38152127244178,
      30.19125249339158
    ]
  },
  {
    "region": "Полтавська",
    "subregion": "Лубенський",
    "settlement_name": "Лубни",
    "street": "вул. Шевченка 18",
    "coordinates": [
      50.01200440039088,
      33.0082265000021
    ]
  },
  {
    "region": "Полтавська",
    "subregion": "Великобагачанський",
    "settlement_name": "Попове",
    "street": "вул. Шкільна 4-а",
    "coordinates": [
      49.62296916296869,
      33.62978292632869
    ]
  },
  {
    "region": "Полтавська",
    "subregion": "Глобинський",
    "settlement_name": "Весела Долина",
    "street": "вул. Незалежності 8",
    "coordinates": [
      49.40612984417917,
      33.48301677433098
    ]
  },
  {
    "region": "Полтавська",
    "subregion": "Диканський",
    "settlement_name": "Байрак",
    "street": "вул. Полтавська 10-а",
    "coordinates": [
      49.72088216791348,
      34.36797383627768
    ]
  },
  {
    "region": "Полтавська",
    "subregion": "Зіньківський",
    "settlement_name": "Шилівка",
    "street": "вул. Центральна 25",
    "coordinates": [
      50.1353187905821,
      34.39224906275676
    ]
  },
  {
    "region": "Полтавська",
    "subregion": "Кобеляцький",
    "settlement_name": "Чорбівка",
    "street": "0.0 null",
    "coordinates": [
      49.20668564459309,
      34.32836863048602
    ]
  },
  {
    "region": "Полтавська",
    "subregion": "Кременчуцький",
    "settlement_name": "Кобелячок",
    "street": "вул. Світанкова 19",
    "coordinates": [
      49.03064450865037,
      33.45354504228651
    ]
  },
  {
    "region": "Полтавська",
    "subregion": "Лубенський",
    "settlement_name": "Біївці",
    "street": "вул. Шевченка 99",
    "coordinates": [
      50.14222037419931,
      32.90243280754483
    ]
  },
  {
    "region": "Полтавська",
    "subregion": "Машівський",
    "settlement_name": "Ряське",
    "street": "0.0 null",
    "coordinates": [
      49.18203727135391,
      34.90518412551367
    ]
  },
  {
    "region": "Полтавська",
    "subregion": "Новосанжарський",
    "settlement_name": "Полузір'я",
    "street": "пл.Соборності 19",
    "coordinates": [
      49.44828098520198,
      34.30733725364527
    ]
  },
  {
    "region": "Полтавська",
    "subregion": "Пирятинський",
    "settlement_name": "Каплинці",
    "street": "вул. Миру 30",
    "coordinates": [
      50.29945338236304,
      32.54097212205426
    ]
  },
  {
    "region": "Полтавська",
    "subregion": "Полтавський",
    "settlement_name": "Судіївка",
    "street": "вул. Соборності 5",
    "coordinates": [
      49.50542608446072,
      34.41909608731883
    ]
  },
  {
    "region": "Полтавська",
    "subregion": "Семенівський",
    "settlement_name": "Матвіївка",
    "street": "вул. Центральна 69",
    "coordinates": [
      49.78065664648363,
      32.85998579312079
    ]
  },
  {
    "region": "Полтавська",
    "subregion": "Хорольський",
    "settlement_name": "Штомпелівка",
    "street": "0.0 null",
    "coordinates": [
      49.79783468516452,
      33.19154105274409
    ]
  },
  {
    "region": "Полтавська",
    "subregion": "Полтавський",
    "settlement_name": "Мачухи",
    "street": "0.0 null",
    "coordinates": [
      49.51956864162793,
      34.44006551870752
    ]
  },
  {
    "region": "Рівненська",
    "subregion": "Рівне",
    "settlement_name": "Рівне",
    "street": "вул. С.Бандери 9-а",
    "coordinates": [
      50.61295446606143,
      26.25195654282703
    ]
  },
  {
    "region": "Рівненська",
    "subregion": "Березнівський",
    "settlement_name": "Губків",
    "street": "вул. Шевченка 20-б",
    "coordinates": [
      50.82815225693833,
      27.04460590010544
    ]
  },
  {
    "region": "Рівненська",
    "subregion": "Володимирецький",
    "settlement_name": "Малий Жолудськ",
    "street": "вул. Богдана Хмельницького 44",
    "coordinates": [
      51.30326460324606,
      26.10937870112207
    ]
  },
  {
    "region": "Рівненська",
    "subregion": "Демидівський",
    "settlement_name": "Вовковиї",
    "street": "вул. Грушевського 156-а",
    "coordinates": [
      50.37306487017303,
      25.38172298905141
    ]
  },
  {
    "region": "Рівненська",
    "subregion": "Дубровицький",
    "settlement_name": "Висоцьк",
    "street": "вул. Малька 1",
    "coordinates": [
      51.72128579571412,
      26.65700099390778
    ]
  },
  {
    "region": "Рівненська",
    "subregion": "Зарічненський",
    "settlement_name": "Привітівка",
    "street": "вул. Соборна 18",
    "coordinates": [
      51.74545382054752,
      26.03824024234789
    ]
  },
  {
    "region": "Рівненська",
    "subregion": "Корецький",
    "settlement_name": "Новий Корець",
    "street": "вул. Незалежності 32-а",
    "coordinates": [
      50.61490338892543,
      27.13782226720207
    ]
  },
  {
    "region": "Рівненська",
    "subregion": "Млинівський",
    "settlement_name": "Миколаївка",
    "street": "вул. Шевченка 6",
    "coordinates": [
      50.37892009924202,
      25.47672707920491
    ]
  },
  {
    "region": "Рівненська",
    "subregion": "Радивилівський",
    "settlement_name": "Гранівка",
    "street": "вул. Шевченка 18",
    "coordinates": [
      50.24889015957666,
      25.51216397607858
    ]
  },
  {
    "region": "Рівненська",
    "subregion": "Рівненський",
    "settlement_name": "Козлин",
    "street": "вул. Я.Федюри 1",
    "coordinates": [
      50.72388436291678,
      26.42584661747016
    ]
  },
  {
    "region": "Рівненська",
    "subregion": "Сарненський",
    "settlement_name": "Калинівка",
    "street": "вул. Шкільна 4",
    "coordinates": [
      51.12322326490801,
      26.32162083469262
    ]
  },
  {
    "region": "Рівненська",
    "subregion": "Рівненський",
    "settlement_name": "Оржів",
    "street": "вул. Центральна 38",
    "coordinates": [
      50.74784302847267,
      26.11942418194209
    ]
  },
  {
    "region": "Сумська",
    "subregion": "Суми",
    "settlement_name": "Суми",
    "street": "вул.Чехова 77",
    "coordinates": [
      50.93401089972428,
      34.82899969999337
    ]
  },
  {
    "region": "Сумська",
    "subregion": "Буринський",
    "settlement_name": "Біжівка",
    "street": "вул. Шкільна 4",
    "coordinates": [
      51.00290963234196,
      33.76161853559677
    ]
  },
  {
    "region": "Сумська",
    "subregion": "Глухівський",
    "settlement_name": "Первомайськ",
    "street": "вул. Слави 4",
    "coordinates": [
      51.81670141570305,
      34.03268833937854
    ]
  },
  {
    "region": "Сумська",
    "subregion": "Конотопський",
    "settlement_name": "Юрівка",
    "street": "вул. Бердицького 4",
    "coordinates": [
      51.00329379978727,
      33.38704750000174
    ]
  },
  {
    "region": "Сумська",
    "subregion": "Лебединський",
    "settlement_name": "Великий Вистороп",
    "street": "вул. Середня 1-а",
    "coordinates": [
      50.69736362529994,
      34.7876856316928
    ]
  },
  {
    "region": "Сумська",
    "subregion": "Недригайлівський",
    "settlement_name": "Комишанка",
    "street": "вул. Космонавтів 1",
    "coordinates": [
      50.84324666199827,
      34.13851593968185
    ]
  },
  {
    "region": "Сумська",
    "subregion": "Путивльський",
    "settlement_name": "Юр'єве",
    "street": "вул. Центральна 2-а",
    "coordinates": [
      51.29484329586688,
      34.08613733991058
    ]
  },
  {
    "region": "Сумська",
    "subregion": "Середино-Будський",
    "settlement_name": "Журавка",
    "street": "вул. Лісна 1-а",
    "coordinates": [
      52.19868783382575,
      33.40934489493102
    ]
  },
  {
    "region": "Сумська",
    "subregion": "Сумський",
    "settlement_name": "Северинівка",
    "street": "вул. Молодіжна 1",
    "coordinates": [
      50.98815005729728,
      34.65885879866062
    ]
  },
  {
    "region": "Сумська",
    "subregion": "Шосткинський",
    "settlement_name": "Собич",
    "street": "вул. Переможська 1",
    "coordinates": [
      51.86040879989789,
      33.25686777732952
    ]
  },
  {
    "region": "Сумська",
    "subregion": "Ямпільський",
    "settlement_name": "Ямпіль",
    "street": "вул. Шевченка 3",
    "coordinates": [
      51.94936471557435,
      33.78794250633368
    ]
  },
  {
    "region": "Тернопільська",
    "subregion": "Тернопіль",
    "settlement_name": "Тернопіль",
    "street": "бульв. Галицького 6",
    "coordinates": [
      49.54615838953345,
      25.62664840013551
    ]
  },
  {
    "region": "Тернопільська",
    "subregion": "Бережанський",
    "settlement_name": "Урмань",
    "street": "вул. Сонячна 13",
    "coordinates": [
      49.57079874242248,
      24.95271602545298
    ]
  },
  {
    "region": "Тернопільська",
    "subregion": "Борщівський",
    "settlement_name": "Устя",
    "street": "вул.Цвинтарівка 45",
    "coordinates": [
      48.61114015201901,
      26.09036311402566
    ]
  },
  {
    "region": "Тернопільська",
    "subregion": "Бучацький",
    "settlement_name": "Старі Петликівці",
    "street": "вул. Січових Стрільців 17",
    "coordinates": [
      49.13684301682256,
      25.36860964027308
    ]
  },
  {
    "region": "Тернопільська",
    "subregion": "Заліщицький",
    "settlement_name": "Винятинці",
    "street": "вул. Центр 6-в",
    "coordinates": [
      48.69153182350858,
      25.90932291879898
    ]
  },
  {
    "region": "Тернопільська",
    "subregion": "Збаразький",
    "settlement_name": "Великий Кунинець",
    "street": "вул. М. Коцюбинського 5-в",
    "coordinates": [
      49.95439155540323,
      25.74507124841727
    ]
  },
  {
    "region": "Тернопільська",
    "subregion": "Зборівський",
    "settlement_name": "Білокриниця",
    "street": "вул. Центральна 16",
    "coordinates": [
      49.76683534235423,
      25.27959753305789
    ]
  },
  {
    "region": "Тернопільська",
    "subregion": "Зборівський",
    "settlement_name": "Ярчівці",
    "street": "вул. Шевченка 2",
    "coordinates": [
      49.6575210924155,
      25.21947303829739
    ]
  },
  {
    "region": "Тернопільська",
    "subregion": "Кременецький",
    "settlement_name": "Крижі",
    "street": "вул. П.Підмурного 11",
    "coordinates": [
      50.13409679968921,
      25.47499190588143
    ]
  },
  {
    "region": "Тернопільська",
    "subregion": "Лановецький",
    "settlement_name": "Козачки",
    "street": "вул. Першотравнева 10-а",
    "coordinates": [
      49.85611746038805,
      26.15975107029828
    ]
  },
  {
    "region": "Тернопільська",
    "subregion": "Підволочиський",
    "settlement_name": "Голотки",
    "street": "вул. Шевченка 30",
    "coordinates": [
      49.65381359202996,
      26.16568102894598
    ]
  },
  {
    "region": "Тернопільська",
    "subregion": "Підгаєцький",
    "settlement_name": "Угринів",
    "street": "вул. Центральна 76",
    "coordinates": [
      49.24971745374447,
      25.08524555697692
    ]
  },
  {
    "region": "Тернопільська",
    "subregion": "Теребовлянський",
    "settlement_name": "Семенів",
    "street": "вул. Семенівська 74",
    "coordinates": [
      49.28058370065069,
      25.67915826503111
    ]
  },
  {
    "region": "Тернопільська",
    "subregion": "Тернопільський",
    "settlement_name": "Серединки",
    "street": "вул. Серединецька null",
    "coordinates": [
      49.47848384005872,
      25.49342220214739
    ]
  },
  {
    "region": "Тернопільська",
    "subregion": "Чортківський",
    "settlement_name": "Сокиринці",
    "street": "вул. Центральна 135",
    "coordinates": [
      48.95151979669723,
      26.20507686916135
    ]
  },
  {
    "region": "Тернопільська",
    "subregion": "Борщівський",
    "settlement_name": "Скала-Подільська",
    "street": "вул. Крушельницької 33",
    "coordinates": [
      48.8505735345006,
      26.20272126354828
    ]
  },
  {
    "region": "Харківська",
    "subregion": "Харків Слобідський",
    "settlement_name": "Харків",
    "street": "просп. Льва Ландау 16",
    "coordinates": [
      49.94949389964742,
      36.30357629992174
    ]
  },
  {
    "region": "Харківська",
    "subregion": "Харків Основ’янський",
    "settlement_name": "Харків",
    "street": "просп. Гагаріна 312",
    "coordinates": [
      49.9280647997797,
      36.2634515999346
    ]
  },
  {
    "region": "Харківська",
    "subregion": "Первомайський",
    "settlement_name": "Первомайський",
    "street": "Сиваський житловий масив null",
    "coordinates": [
      49.39436165807884,
      36.21649517153912
    ]
  },
  {
    "region": "Харківська",
    "subregion": "Балаклійський",
    "settlement_name": "Нова Гусарівка",
    "street": "вул. Центральна 55",
    "coordinates": [
      49.39056041761382,
      36.87536671520387
    ]
  },
  {
    "region": "Харківська",
    "subregion": "Близнюківський",
    "settlement_name": "Степове",
    "street": "вул. Торгова 13",
    "coordinates": [
      48.74856454410818,
      36.52073714227102
    ]
  },
  {
    "region": "Харківська",
    "subregion": "Валківський",
    "settlement_name": "Кобзарівка",
    "street": "вул. Центральна 9",
    "coordinates": [
      49.79075909432569,
      35.67201541540158
    ]
  },
  {
    "region": "Харківська",
    "subregion": "Вовчанський",
    "settlement_name": "Василівка",
    "street": "вул. Слобідська 19-а",
    "coordinates": [
      50.23764584665203,
      37.30767941424555
    ]
  },
  {
    "region": "Харківська",
    "subregion": "Зачепилівський",
    "settlement_name": "Чернещина",
    "street": "вул. Центральна null",
    "coordinates": [
      49.28480994338911,
      35.10045013093913
    ]
  },
  {
    "region": "Харківська",
    "subregion": "Золочівський",
    "settlement_name": "Макарове",
    "street": "вул. Шкільна 1",
    "coordinates": [
      50.29425821286117,
      36.14921622538669
    ]
  },
  {
    "region": "Харківська",
    "subregion": "Кегичівський",
    "settlement_name": "Лозова",
    "street": "вул. Лозівська 99",
    "coordinates": [
      49.47032346380713,
      35.89031470423172
    ]
  },
  {
    "region": "Харківська",
    "subregion": "Краснокутський",
    "settlement_name": "Козіївка",
    "street": "вул. Слобожанська 54",
    "coordinates": [
      50.15090830260895,
      35.21233113210921
    ]
  },
  {
    "region": "Харківська",
    "subregion": "Лозівський",
    "settlement_name": "Тихопілля",
    "street": "вул. Полтавська 46",
    "coordinates": [
      49.08168457520009,
      36.60871040047918
    ]
  },
  {
    "region": "Харківська",
    "subregion": "Печенізький",
    "settlement_name": "Мартове",
    "street": "вул. Гагаріна 1-б",
    "coordinates": [
      49.93629461977399,
      36.95445112918792
    ]
  },
  {
    "region": "Харківська",
    "subregion": "Харківський",
    "settlement_name": "Слобідське",
    "street": "вул. Зарічна 11-а",
    "coordinates": [
      50.01851830772685,
      36.44603730337801
    ]
  },
  {
    "region": "Харківська",
    "subregion": "Балаклійський",
    "settlement_name": "Донець",
    "street": "вул. Весняна 44",
    "coordinates": [
      49.50863362811465,
      36.57144185290218
    ]
  },
  {
    "region": "Харківська",
    "subregion": "Лозівський",
    "settlement_name": "Краснопавлівка",
    "street": "пл. Незалежності БК`Дніпро`",
    "coordinates": [
      49.13983878279764,
      36.31922633221075
    ]
  },
  {
    "region": "Херсонська",
    "subregion": "Нова Каховка",
    "settlement_name": "Нова Каховка",
    "street": "вул. Букіна 36",
    "coordinates": [
      46.75566140028391,
      33.37290919999331
    ]
  },
  {
    "region": "Херсонська",
    "subregion": "Голопристанський",
    "settlement_name": "Малі Копані",
    "street": "вул. Гагаріна 19",
    "coordinates": [
      46.43638179984332,
      32.71540760005669
    ]
  },
  {
    "region": "Херсонська",
    "subregion": "Білозерський",
    "settlement_name": "Новотягинка",
    "street": "вул. Придніпровська 58",
    "coordinates": [
      46.74738497184051,
      32.99689083098225
    ]
  },
  {
    "region": "Херсонська",
    "subregion": "Великолепетиський",
    "settlement_name": "Демидівка",
    "street": "0.0 null",
    "coordinates": [
      47.0580478829194,
      34.30790111497824
    ]
  },
  {
    "region": "Херсонська",
    "subregion": "Голопристанський",
    "settlement_name": "Нова Збур'ївка",
    "street": "вул. Лікарняна 18",
    "coordinates": [
      46.45260530007835,
      32.45393510006078
    ]
  },
  {
    "region": "Херсонська",
    "subregion": "Каланчацький",
    "settlement_name": "Макарівка",
    "street": "вул. 50 років Перемоги 7",
    "coordinates": [
      46.23752469993557,
      33.53010129994649
    ]
  },
  {
    "region": "Херсонська",
    "subregion": "Нововоронцовський",
    "settlement_name": "Біляївка",
    "street": "вул. Центральна 40-б",
    "coordinates": [
      47.32776048223379,
      33.69766017782037
    ]
  },
  {
    "region": "Херсонська",
    "subregion": "Херсон",
    "settlement_name": "Петрівка",
    "street": "вул. Шкільна 34",
    "coordinates": [
      46.83014188756869,
      32.6316120609302
    ]
  },
  {
    "region": "Херсонська",
    "subregion": "Високопільський",
    "settlement_name": "Високопілля",
    "street": "вул. Визволителів 55",
    "coordinates": [
      47.48831689968356,
      33.5321835999993
    ]
  },
  {
    "region": "Хмельницька",
    "subregion": "Ізяславський",
    "settlement_name": "Ізяслав",
    "street": "вул. Незалежності 13",
    "coordinates": [
      50.11995750017811,
      26.82082209997212
    ]
  },
  {
    "region": "Хмельницька",
    "subregion": "Шепетівка",
    "settlement_name": "Шепетівка",
    "street": "вул. Героїв Небесної Сотні 54",
    "coordinates": [
      50.17921009998474,
      27.07048420000731
    ]
  },
  {
    "region": "Хмельницька",
    "subregion": "Віньковецький",
    "settlement_name": "Карижин",
    "street": "вул. Чехова 5",
    "coordinates": [
      49.03616669993747,
      27.23005810000726
    ]
  },
  {
    "region": "Хмельницька",
    "subregion": "Волочиський",
    "settlement_name": "Трительники",
    "street": "вул. Центральна 7",
    "coordinates": [
      49.48726319981834,
      26.53620220002797
    ]
  },
  {
    "region": "Хмельницька",
    "subregion": "Деражнянський",
    "settlement_name": "Загінці",
    "street": "вул. Центральна 2",
    "coordinates": [
      49.20719840009408,
      27.15348519998444
    ]
  },
  {
    "region": "Хмельницька",
    "subregion": "Дунаєвецький",
    "settlement_name": "Тинна",
    "street": "вул. Молодіжна 2",
    "coordinates": [
      49.02600790020196,
      26.72674089998085
    ]
  },
  {
    "region": "Хмельницька",
    "subregion": "Кам'янець-Подільський",
    "settlement_name": "Гринчук",
    "street": "вул. Центральна 1",
    "coordinates": [
      48.73357559960172,
      26.59023630005609
    ]
  },
  {
    "region": "Хмельницька",
    "subregion": "Красилівський",
    "settlement_name": "Васьківчики",
    "street": "вул. Центральна 1",
    "coordinates": [
      49.89804479973935,
      26.76738200003211
    ]
  },
  {
    "region": "Хмельницька",
    "subregion": "Летичівський",
    "settlement_name": "Гречинці",
    "street": "вул. Світанкова 16",
    "coordinates": [
      49.49032029978823,
      27.51960069999708
    ]
  },
  {
    "region": "Хмельницька",
    "subregion": "Полонський",
    "settlement_name": "Велика Березна",
    "street": "вул. Дмитрівська 40-а",
    "coordinates": [
      50.04036470012932,
      27.43157020003518
    ]
  },
  {
    "region": "Хмельницька",
    "subregion": "Славутський",
    "settlement_name": "Стригани",
    "street": "вул. Одухи 2",
    "coordinates": [
      50.29769879992121,
      26.86611630000733
    ]
  },
  {
    "region": "Хмельницька",
    "subregion": "Старосинявський",
    "settlement_name": "Іванківці",
    "street": "вул. Колгоспна 11",
    "coordinates": [
      49.57307489989338,
      27.5454990000624
    ]
  },
  {
    "region": "Хмельницька",
    "subregion": "Хмельницький",
    "settlement_name": "Везденьки",
    "street": "вул. Центральна 17",
    "coordinates": [
      49.58282740028181,
      26.87356749996642
    ]
  },
  {
    "region": "Хмельницька",
    "subregion": "Чемеровецький",
    "settlement_name": "Гусятин",
    "street": "вул. Героїв Небесної Сотні null",
    "coordinates": [
      49.06889409963721,
      26.2228694000497
    ]
  },
  {
    "region": "Хмельницька",
    "subregion": "Шепетівський",
    "settlement_name": "Онишківці",
    "street": "вул. К.Маркса 1",
    "coordinates": [
      49.95409860040232,
      27.22624749994969
    ]
  },
  {
    "region": "Хмельницька",
    "subregion": "Білогірський",
    "settlement_name": "Білогір'я",
    "street": "вул. Шевченка 43",
    "coordinates": [
      49.99870479963412,
      26.41822460005159
    ]
  },
  {
    "region": "Черкаська",
    "subregion": "Жашківський",
    "settlement_name": "Жашків",
    "street": "вул.Центральна 2",
    "coordinates": [
      49.24086042771869,
      30.10164359413666
    ]
  },
  {
    "region": "Черкаська",
    "subregion": "Черкаси",
    "settlement_name": "Черкаси",
    "street": "вул. Чікрвані 32/2",
    "coordinates": [
      49.40799884884868,
      32.05320711570086
    ]
  },
  {
    "region": "Черкаська",
    "subregion": "Драбівський",
    "settlement_name": "Жорнокльови",
    "street": "вул. Шевченка 37",
    "coordinates": [
      49.96414569321036,
      31.95225918763922
    ]
  },
  {
    "region": "Черкаська",
    "subregion": "Жашківський",
    "settlement_name": "Тетерівка",
    "street": "вул. Центральна 39",
    "coordinates": [
      49.24816652909123,
      30.21252186768084
    ]
  },
  {
    "region": "Черкаська",
    "subregion": "Золотоніський",
    "settlement_name": "Коврай 2",
    "street": "вул. Шевченка 42",
    "coordinates": [
      49.78175818438911,
      31.92716851245537
    ]
  },
  {
    "region": "Черкаська",
    "subregion": "Канівський",
    "settlement_name": "Грищенці",
    "street": "вул. Б. Барвінського 12",
    "coordinates": [
      49.80227007580228,
      31.35405131916967
    ]
  },
  {
    "region": "Черкаська",
    "subregion": "Корсунь-Шевченківський",
    "settlement_name": "Бровахи",
    "street": "вул. Польова 37",
    "coordinates": [
      49.513289711943,
      31.36520947892077
    ]
  },
  {
    "region": "Черкаська",
    "subregion": "Лисянський",
    "settlement_name": "Писарівка",
    "street": "вул. Медвинська 1-а",
    "coordinates": [
      49.33235150762657,
      30.75661781009734
    ]
  },
  {
    "region": "Черкаська",
    "subregion": "Монастирищенський",
    "settlement_name": "Жовтневе",
    "street": "вул. Центральна 29",
    "coordinates": [
      49.03206141333887,
      29.66427454490848
    ]
  },
  {
    "region": "Черкаська",
    "subregion": "Смілянський",
    "settlement_name": "Ташлик",
    "street": "вул. Б.Хмельницького 14",
    "coordinates": [
      49.07072675462877,
      31.7510530635492
    ]
  },
  {
    "region": "Черкаська",
    "subregion": "Уманський",
    "settlement_name": "Колодисте",
    "street": "вул..Лесі Українки 3",
    "coordinates": [
      48.48795062968141,
      30.12286326273057
    ]
  },
  {
    "region": "Черкаська",
    "subregion": "Христинівський",
    "settlement_name": "Осітна",
    "street": "вул. Калініна 153",
    "coordinates": [
      48.65909711137846,
      30.02818413541921
    ]
  },
  {
    "region": "Черкаська",
    "subregion": "Чигиринський",
    "settlement_name": "Матвіївка",
    "street": "вул. Перемоги 15",
    "coordinates": [
      49.06501723757216,
      32.42902690261544
    ]
  },
  {
    "region": "Черкаська",
    "subregion": "Чорнобаївський",
    "settlement_name": "Новоселиця",
    "street": "вул. Вишнева 12",
    "coordinates": [
      49.65178775378068,
      32.54257624998845
    ]
  },
  {
    "region": "Черкаська",
    "subregion": "Уманський",
    "settlement_name": "Бабанка",
    "street": "вул..Соборна 3",
    "coordinates": [
      48.70783563789184,
      30.45164138707727
    ]
  },
  {
    "region": "Чернівецька",
    "subregion": "Вижницький",
    "settlement_name": "Бабино",
    "street": "вул.Центральна 20",
    "coordinates": [
      48.32812796181192,
      25.49178093174373
    ]
  },
  {
    "region": "Чернівецька",
    "subregion": "Глибоцький",
    "settlement_name": "Біла Криниця",
    "street": "вул. Білокриницька 25",
    "coordinates": [
      47.97283407897741,
      25.88776966626877
    ]
  },
  {
    "region": "Чернівецька",
    "subregion": "Заставнівський",
    "settlement_name": "Кулівці",
    "street": "вул. Кобилянської 4",
    "coordinates": [
      48.63474593590092,
      25.83019052752275
    ]
  },
  {
    "region": "Чернівецька",
    "subregion": "Кіцманський",
    "settlement_name": "Брусенки",
    "street": "вул. Б. Хмельницького 67",
    "coordinates": [
      48.27692981535397,
      25.51681765784763
    ]
  },
  {
    "region": "Чернівецька",
    "subregion": "Новоселицький",
    "settlement_name": "Рингач",
    "street": "вул. Садова 1",
    "coordinates": [
      48.31013637867347,
      26.24541179233686
    ]
  },
  {
    "region": "Чернівецька",
    "subregion": "Сокирянський",
    "settlement_name": "Михалкове",
    "street": "вул.Макаренка 2",
    "coordinates": [
      48.56300159968568,
      27.29498860003073
    ]
  },
  {
    "region": "Чернівецька",
    "subregion": "Хотинський",
    "settlement_name": "Білівці",
    "street": "вул.Головна 22-б",
    "coordinates": [
      48.34750037666806,
      26.48318574906057
    ]
  },
  {
    "region": "Чернігівська",
    "subregion": "Чернігів",
    "settlement_name": "Чернігів",
    "street": "вул. Шевченка 63",
    "coordinates": [
      51.50790581950011,
      31.34170080403394
    ]
  },
  {
    "region": "Чернігівська",
    "subregion": "Чернігів",
    "settlement_name": "Чернігів",
    "street": "вул. Захисників України 7-в",
    "coordinates": [
      51.50933847324989,
      31.33239182405129
    ]
  },
  {
    "region": "Чернігівська",
    "subregion": "Бобровицький",
    "settlement_name": "Ярославка",
    "street": "вул. Леніна 80-а",
    "coordinates": [
      50.66901741715017,
      31.2910047000558
    ]
  },
  {
    "region": "Чернігівська",
    "subregion": "Варвинський",
    "settlement_name": "Мармизівка",
    "street": "вул. Васюка 7",
    "coordinates": [
      50.50334630267366,
      32.98578979561279
    ]
  },
  {
    "region": "Чернігівська",
    "subregion": "Ічнянський",
    "settlement_name": "Іваниця",
    "street": "вул. Петра Жовторіпенка 63",
    "coordinates": [
      50.78232487228247,
      32.63199711904193
    ]
  },
  {
    "region": "Чернігівська",
    "subregion": "Козелецький",
    "settlement_name": "Олексіївщина",
    "street": "вул. Пушкіна 1",
    "coordinates": [
      50.89893198731238,
      31.10544599686058
    ]
  },
  {
    "region": "Чернігівська",
    "subregion": "Корюківський",
    "settlement_name": "Домашлин",
    "street": "вул. Центральна 8",
    "coordinates": [
      51.6492941697221,
      32.32814312602275
    ]
  },
  {
    "region": "Чернігівська",
    "subregion": "Менський",
    "settlement_name": "Сахнівка",
    "street": "вул. Червона площа 2",
    "coordinates": [
      51.65720712703088,
      31.73383354541256
    ]
  },
  {
    "region": "Чернігівська",
    "subregion": "Ніжинський",
    "settlement_name": "Черняхівка",
    "street": "вул.Леніна 1",
    "coordinates": [
      51.11591006571334,
      32.02865686104983
    ]
  },
  {
    "region": "Чернігівська",
    "subregion": "Носівський",
    "settlement_name": "Роздольне",
    "street": "вул.Московська 24",
    "coordinates": [
      51.07288619603079,
      31.41308650741657
    ]
  },
  {
    "region": "Чернігівська",
    "subregion": "Ріпкинський",
    "settlement_name": "Вербичі",
    "street": "вул.Перемоги 23",
    "coordinates": [
      51.71536584354291,
      31.16657782068388
    ]
  },
  {
    "region": "Чернігівська",
    "subregion": "Сосницький",
    "settlement_name": "Кудрівка",
    "street": "вул.М.Жолдака 3-а",
    "coordinates": [
      51.65022540215141,
      32.63364464152603
    ]
  },
  {
    "region": "Чернігівська",
    "subregion": "Чернігівський",
    "settlement_name": "Кархівка",
    "street": "вул. Перемоги 11",
    "coordinates": [
      51.46329231301174,
      30.91282510392462
    ]
  },
  {
    "region": "Чернігівська",
    "subregion": "Сновський",
    "settlement_name": "Рогізки",
    "street": "вул. Шевченко 1",
    "coordinates": [
      51.68189856178022,
      31.84936212880296
    ]
  },
  {
    "region": "Київ",
    "subregion": "Київ",
    "settlement_name": "Київ",
    "street": "вул. Льва Толстого 49",
    "coordinates": [
      50.44047440039378,
      30.49884139991318
    ]
  },
  {
    "region": "Київ",
    "subregion": "Дніпровський",
    "settlement_name": "Київ",
    "street": "вул. Малишка Sat Jan 25 2020 02:00:00 GMT+0200 (Eastern European Standard Time)",
    "coordinates": [
      50.46068180042872,
      30.6229456999341
    ]
  },
  {
    "region": "Київ",
    "subregion": "Святошинський",
    "settlement_name": "Київ",
    "street": "вул. Ушакова 12",
    "coordinates": [
      50.45802080026108,
      30.33968199994143
    ]
  }
]